,zpid,id,rawHomeStatusCd,marketingStatusSimplifiedCd,providerListingId,detailUrl,statusType,statusText,countryCurrency,price,unformattedPrice,address,addressStreet,addressCity,addressState,addressZipcode,isUndisclosedAddress,beds,baths,area,latitude,longitude,isZillowOwned,isUserClaimingOwner,isUserConfirmedClaim,pgapt,sgapt,shouldShowZestimateAsPrice,availabilityDate
0,351121401,351121401,ForSale,For Sale by Agent,,https://www.zillow.com/homedetails/Edmonton-AB-T5X-4X2/351121401_zpid/,FOR_SALE,Townhouse for sale,C$,"C$185,000",185000,"(undisclosed Address), Edmonton, AB T5X 4X2",(undisclosed Address),Edmonton,AB,T5X4X2,True,3,2,1148.0,,,False,False,False,ForSale,For Sale (Broker),False,
1,351063116,351063116,ForSale,For Sale by Agent,,https://www.zillow.com/homedetails/1415-62nd-St-NW-10-Edmonton-AB-T6L-4K1/351063116_zpid/,FOR_SALE,Townhouse for sale,C$,"C$154,900",154900,"1415 62nd St NW #10, Edmonton, AB T6L 4K1",1415 62nd St NW #10,Edmonton,AB,T6L4K1,False,3,2,1143.0,53.443317,-113.43121,False,False,False,ForSale,For Sale (Broker),False,
2,351116086,351116086,ForSale,For Sale by Agent,,https://www.zillow.com/homedetails/12003-52nd-St-NW-Edmonton-AB-T5W-3J7/351116086_zpid/,FOR_SALE,House for sale,C$,"C$410,000",410000,"12003 52nd St NW, Edmonton, AB T5W 3J7",12003 52nd St NW,Edmonton,AB,T5W3J7,False,5,2,1140.0,53.573692,-113.42114,False,False,False,ForSale,For Sale (Broker),False,
3,2080848770,2080848770,ForSale,For Sale by Agent,,https://www.zillow.com/homedetails/11804-22nd-Ave-SW-118-Edmonton-AB-T6W-2A2/2080848770_zpid/,FOR_SALE,Apartment for sale,C$,"C$220,000",220000,"11804 22nd Ave SW #118, Edmonton, AB T6W 2A2",11804 22nd Ave SW #118,Edmonton,AB,T6W2A2,False,2,2,966.0,53.409306,-113.531044,False,False,False,ForSale,For Sale (Broker),False,
4,351123613,351123613,ForSale,For Sale by Agent,,https://www.zillow.com/homedetails/4507-12th-Ave-NW-Edmonton-AB-T6L-5X4/351123613_zpid/,FOR_SALE,House for sale,C$,"C$469,900",469900,"4507 12th Ave NW, Edmonton, AB T6L 5X4",4507 12th Ave NW,Edmonton,AB,T6L5X4,False,4,3,1244.0,53.44028,-113.40974,False,False,False,ForSale,For Sale (Broker),False,
5,351077652,351077652,ForSale,For Sale by Agent,,https://www.zillow.com/homedetails/2508-50th-St-NW-113-Edmonton-AB-T6L-6X9/351077652_zpid/,FOR_SALE,Apartment for sale,C$,"C$174,900",174900,"2508 50th St NW #113, Edmonton, AB T6L 6X9",2508 50th St NW #113,Edmonton,AB,T6L6X9,False,2,2,1192.0,53.457306,-113.42206,False,False,False,ForSale,For Sale (Broker),False,
6,351058819,351058819,ForSale,For Sale by Agent,,https://www.zillow.com/homedetails/11631-112th-Ave-NW-Edmonton-AB-T5G-0H8/351058819_zpid/,FOR_SALE,House for sale,C$,"C$495,000",495000,"11631 112th Ave NW, Edmonton, AB T5G 0H8",11631 112th Ave NW,Edmonton,AB,T5G0H8,False,4,2,1044.0,53.56058,-113.523605,False,False,False,ForSale,For Sale (Broker),False,
7,351085746,351085746,ForSale,For Sale by Agent,,https://www.zillow.com/homedetails/9103-138th-Ave-NW-Edmonton-AB-T5E-2B1/351085746_zpid/,FOR_SALE,House for sale,C$,"C$429,900",429900,"9103 138th Ave NW, Edmonton, AB T5E 2B1",9103 138th Ave NW,Edmonton,AB,T5E2B1,False,5,3,1467.0,53.600388,-113.482735,False,False,False,ForSale,For Sale (Broker),False,
8,351115756,351115756,ForSale,For Sale by Agent,,https://www.zillow.com/homedetails/7911-80th-Ave-NW-Edmonton-AB-T6C-0S5/351115756_zpid/,FOR_SALE,House for sale,C$,"C$400,000",400000,"7911 80th Ave NW, Edmonton, AB T6C 0S5",7911 80th Ave NW,Edmonton,AB,T6C0S5,False,4,2,1402.0,53.515884,-113.44976,False,False,False,ForSale,For Sale (Broker),False,
9,351108217,351108217,ForSale,For Sale by Agent,,https://www.zillow.com/homedetails/5065-31st-Ave-NW-111-Edmonton-AB-T6L-6S5/351108217_zpid/,FOR_SALE,Apartment for sale,C$,"C$149,999",149999,"5065 31st Ave NW #111, Edmonton, AB T6L 6S5",5065 31st Ave NW #111,Edmonton,AB,T6L6S5,False,2,1,809.0,53.4622,-113.42361,False,False,False,ForSale,For Sale (Broker),False,
10,2085244179,2085244179,ForSale,For Sale by Agent,,https://www.zillow.com/homedetails/20603-46th-Ave-NW-Edmonton-AB-T6M-0C2/2085244179_zpid/,FOR_SALE,House for sale,C$,"C$455,900",455900,"20603 46th Ave NW, Edmonton, AB T6M 0C2",20603 46th Ave NW,Edmonton,AB,T6M0C2,False,3,2,1266.0,53.483513,-113.67746,False,False,False,ForSale,For Sale (Broker),False,
11,351059140,351059140,ForSale,For Sale by Agent,,https://www.zillow.com/homedetails/6220-128th-St-NW-Edmonton-AB-T6H-3X3/351059140_zpid/,FOR_SALE,House for sale,C$,"C$859,900",859900,"6220 128th St NW, Edmonton, AB T6H 3X3",6220 128th St NW,Edmonton,AB,T6H3X3,False,6,3,1787.0,53.4986,-113.54877,False,False,False,ForSale,For Sale (Broker),False,
12,2065605183,2065605183,ForSale,For Sale by Agent,,https://www.zillow.com/homedetails/9132-146a-St-NW-Edmonton-AB-T5R-0X4/2065605183_zpid/,FOR_SALE,House for sale,C$,"C$590,000",590000,"9132 146a St NW, Edmonton, AB T5R 0X4",9132 146a St NW,Edmonton,AB,T5R0X4,False,4,2,1254.0,53.52613,-113.57317,False,False,False,ForSale,For Sale (Broker),False,
13,351071750,351071750,ForSale,For Sale by Agent,,https://www.zillow.com/homedetails/3674-Atkinson-Loop-SW-Edmonton-AB-T6W-0X1/351071750_zpid/,FOR_SALE,House for sale,C$,"C$449,900",449900,"3674 Atkinson Loop SW, Edmonton, AB T6W 0X1",3674 Atkinson Loop SW,Edmonton,AB,T6W0X1,False,3,3,1531.0,53.402367,-113.5275,False,False,False,ForSale,For Sale (Broker),False,
14,351114604,351114604,ForSale,For Sale by Agent,,https://www.zillow.com/homedetails/22719-93rd-Ave-NW-Edmonton-AB-T5T-1Y1/351114604_zpid/,FOR_SALE,House for sale,C$,"C$409,500",409500,"22719 93rd Ave NW, Edmonton, AB T5T 1Y1",22719 93rd Ave NW,Edmonton,AB,T5T1Y1,False,3,3,1285.0,53.526024,-113.70378,False,False,False,ForSale,For Sale (Broker),False,
15,351062017,351062017,ForSale,For Sale by Agent,,https://www.zillow.com/homedetails/2708-204th-St-NW-Edmonton-AB-T6M-0W4/351062017_zpid/,FOR_SALE,House for sale,C$,"C$830,000",830000,"2708 204th St NW, Edmonton, AB T6M 0W4",2708 204th St NW,Edmonton,AB,T6M0W4,False,3,3,1517.0,53.458366,-113.67194,False,False,False,ForSale,For Sale (Broker),False,
16,351060962,351060962,ForSale,For Sale by Agent,,https://www.zillow.com/homedetails/Edmonton-AB-T6R-0R7/351060962_zpid/,FOR_SALE,Townhouse for sale,C$,"C$400,000",400000,"(undisclosed Address), Edmonton, AB T6R 0R7",(undisclosed Address),Edmonton,AB,T6R0R7,True,3,3,1458.0,,,False,False,False,ForSale,For Sale (Broker),False,
17,351063260,351063260,ForSale,For Sale by Agent,,https://www.zillow.com/homedetails/2510-109th-St-NW-406-Edmonton-AB-T6J-2X1/351063260_zpid/,FOR_SALE,Apartment for sale,C$,"C$274,900",274900,"2510 109th St NW #406, Edmonton, AB T6J 2X1",2510 109th St NW #406,Edmonton,AB,T6J2X1,False,1,1,853.0,53.456497,-113.51007,False,False,False,ForSale,For Sale (Broker),False,
18,351060301,351060301,ForSale,For Sale by Agent,,https://www.zillow.com/homedetails/4517-190a-St-NW-32-Edmonton-AB-T6M-0R4/351060301_zpid/,FOR_SALE,Townhouse for sale,C$,"C$479,000",479000,"4517 190a St NW #32, Edmonton, AB T6M 0R4",4517 190a St NW #32,Edmonton,AB,T6M0R4,False,2,2,1282.0,53.482773,-113.65274,False,False,False,ForSale,For Sale (Broker),False,
19,351084022,351084022,ForSale,For Sale by Agent,,https://www.zillow.com/homedetails/8309-29th-Ave-NW-Edmonton-AB-T6K-3J9/351084022_zpid/,FOR_SALE,Townhouse for sale,C$,"C$185,000",185000,"8309 29th Ave NW, Edmonton, AB T6K 3J9",8309 29th Ave NW,Edmonton,AB,T6K3J9,False,3,1,1033.0,53.459923,-113.456985,False,False,False,ForSale,For Sale (Broker),False,
20,351070423,351070423,ForSale,For Sale by Agent,,https://www.zillow.com/homedetails/19904-31st-Ave-NW-44-Edmonton-AB-T6M-1N7/351070423_zpid/,FOR_SALE,Condo for sale,C$,"C$449,998",449998,"19904 31st Ave NW #44, Edmonton, AB T6M 1N7",19904 31st Ave NW #44,Edmonton,AB,T6M1N7,False,3,3,1376.0,53.463734,-113.66536,False,False,False,ForSale,For Sale (Broker),False,
21,351063602,351063602,ForSale,For Sale by Agent,,https://www.zillow.com/homedetails/7904-155th-Ave-NW-Edmonton-AB-T5Z-2S7/351063602_zpid/,FOR_SALE,House for sale,C$,"C$475,000",475000,"7904 155th Ave NW, Edmonton, AB T5Z 2S7",7904 155th Ave NW,Edmonton,AB,T5Z2S7,False,4,3,1363.0,53.617653,-113.46353,False,False,False,ForSale,For Sale (Broker),False,
22,351058717,351058717,ForSale,For Sale by Agent,,https://www.zillow.com/homedetails/12224-131a-Ave-NW-Edmonton-AB-T5L-3N8/351058717_zpid/,FOR_SALE,House for sale,C$,"C$399,900",399900,"12224 131a Ave NW, Edmonton, AB T5L 3N8",12224 131a Ave NW,Edmonton,AB,T5L3N8,False,4,2,1047.0,53.591503,-113.53316,False,False,False,ForSale,For Sale (Broker),False,
23,351058829,351058829,ForSale,For Sale by Agent,,https://www.zillow.com/homedetails/12940-102nd-St-NW-Edmonton-AB-T5E-4J3/351058829_zpid/,FOR_SALE,Multi-family home for sale,C$,"C$325,000",325000,"12940 102nd St NW, Edmonton, AB T5E 4J3",12940 102nd St NW,Edmonton,AB,T5E4J3,False,4,2,964.0,53.58867,-113.49591,False,False,False,ForSale,For Sale (Broker),False,
24,351057997,351057997,ForSale,For Sale by Agent,,https://www.zillow.com/homedetails/1235-163rd-St-SW-Edmonton-AB-T6W-3K5/351057997_zpid/,FOR_SALE,House for sale,C$,"C$400,000",400000,"1235 163rd St SW, Edmonton, AB T6W 3K5",1235 163rd St SW,Edmonton,AB,T6W3K5,False,3,3,1344.0,53.422626,-113.60256,False,False,False,ForSale,For Sale (Broker),False,
25,2054304246,2054304246,ForSale,For Sale by Agent,,https://www.zillow.com/homedetails/9707-105th-St-NW-1203-Edmonton-AB-T5K-2Y4/2054304246_zpid/,FOR_SALE,Apartment for sale,C$,"C$365,000",365000,"9707 105th St NW #1203, Edmonton, AB T5K 2Y4",9707 105th St NW #1203,Edmonton,AB,T5K2Y4,False,2,3,1718.0,53.53433,-113.50075,False,False,False,ForSale,For Sale (Broker),False,
26,2057177794,2057177794,ForSale,For Sale by Agent,,https://www.zillow.com/homedetails/9126-152nd-St-NW-Edmonton-AB-T5R-1M4/2057177794_zpid/,FOR_SALE,House for sale,C$,"C$385,000",385000,"9126 152nd St NW, Edmonton, AB T5R 1M4",9126 152nd St NW,Edmonton,AB,T5R1M4,False,5,2,1047.0,53.525764,-113.58373,False,False,False,ForSale,For Sale (Broker),False,
27,351120447,351120447,ForSale,For Sale by Agent,,https://www.zillow.com/homedetails/Edmonton-AB-T6W-2G3/351120447_zpid/,FOR_SALE,House for sale,C$,"C$565,000",565000,"(undisclosed Address), Edmonton, AB T6W 2G3",(undisclosed Address),Edmonton,AB,T6W2G3,True,3,3,1666.0,,,False,False,False,ForSale,For Sale (Broker),False,
28,351085394,351085394,ForSale,For Sale by Agent,,https://www.zillow.com/homedetails/1506-Tamarack-Blvd-NW-412-Edmonton-AB-T6T-2J5/351085394_zpid/,FOR_SALE,Apartment for sale,C$,"C$215,000",215000,"1506 Tamarack Blvd NW #412, Edmonton, AB T6T 2J5",1506 Tamarack Blvd NW #412,Edmonton,AB,T6T2J5,False,1,1,560.0,53.454887,-113.36451,False,False,False,ForSale,For Sale (Broker),False,
29,351059228,351059228,ForSale,For Sale by Agent,,https://www.zillow.com/homedetails/9421-Pear-Cres-SW-Edmonton-AB-T6X-2Z5/351059228_zpid/,FOR_SALE,House for sale,C$,"C$589,000",589000,"9421 Pear Cres SW, Edmonton, AB T6X 2Z5",9421 Pear Cres SW,Edmonton,AB,T6X2Z5,False,4,3,1893.0,53.40038,-113.467995,False,False,False,ForSale,For Sale (Broker),False,
30,2057123363,2057123363,ForSale,For Sale by Agent,,https://www.zillow.com/homedetails/3257-139th-Ave-NW-Edmonton-AB-T5Y-1T2/2057123363_zpid/,FOR_SALE,Townhouse for sale,C$,"C$214,900",214900,"3257 139th Ave NW, Edmonton, AB T5Y 1T2",3257 139th Ave NW,Edmonton,AB,T5Y1T2,False,3,2,1119.0,53.602596,-113.39245,False,False,False,ForSale,For Sale (Broker),False,
31,351083242,351083242,ForSale,For Sale by Agent,,https://www.zillow.com/homedetails/14803-34th-St-NW-18-Edmonton-AB-T5Y-2L3/351083242_zpid/,FOR_SALE,Townhouse for sale,C$,"C$239,900",239900,"14803 34th St NW #18, Edmonton, AB T5Y 2L3",14803 34th St NW #18,Edmonton,AB,T5Y2L3,False,3,3,1276.0,53.611557,-113.392815,False,False,False,ForSale,For Sale (Broker),False,
32,351059214,351059214,ForSale,For Sale by Agent,,https://www.zillow.com/homedetails/2510-109th-St-NW-206-Edmonton-AB-T6J-2X1/351059214_zpid/,FOR_SALE,Apartment for sale,C$,"C$265,900",265900,"2510 109th St NW #206, Edmonton, AB T6J 2X1",2510 109th St NW #206,Edmonton,AB,T6J2X1,False,1,1,853.0,53.456333,-113.5107,False,False,False,ForSale,For Sale (Broker),False,
33,351123419,351123419,ForSale,For Sale by Agent,,https://www.zillow.com/homedetails/14816-93rd-Ave-NW-Edmonton-AB-T5R-5G9/351123419_zpid/,FOR_SALE,House for sale,C$,"C$349,000",349000,"14816 93rd Ave NW, Edmonton, AB T5R 5G9",14816 93rd Ave NW,Edmonton,AB,T5R5G9,False,4,2,1139.0,53.528545,-113.57739,False,False,False,ForSale,For Sale (Broker),False,
34,351070647,351070647,ForSale,For Sale by Agent,,https://www.zillow.com/homedetails/2229-44th-Ave-NW-107-Edmonton-AB-T6T-0W6/351070647_zpid/,FOR_SALE,Apartment for sale,C$,"C$198,800",198800,"2229 44th Ave NW #107, Edmonton, AB T6T 0W6",2229 44th Ave NW #107,Edmonton,AB,T6T0W6,False,2,2,871.0,53.480667,-113.3781,False,False,False,ForSale,For Sale (Broker),False,
35,351080672,351080672,ForSale,For Sale by Agent,,https://www.zillow.com/homedetails/3814-25th-Ave-NW-Edmonton-AB-T6L-4C7/351080672_zpid/,FOR_SALE,House for sale,C$,"C$439,900",439900,"3814 25th Ave NW, Edmonton, AB T6L 4C7",3814 25th Ave NW,Edmonton,AB,T6L4C7,False,5,3,1109.0,53.455147,-113.40097,False,False,False,ForSale,For Sale (Broker),False,
36,351071163,351071163,ForSale,For Sale by Agent,,https://www.zillow.com/homedetails/12804-140th-Ave-NW-127-Edmonton-AB-T6V-0M3/351071163_zpid/,FOR_SALE,Apartment for sale,C$,"C$269,998",269998,"12804 140th Ave NW #127, Edmonton, AB T6V 0M3",12804 140th Ave NW #127,Edmonton,AB,T6V0M3,False,2,2,975.0,53.60243,-113.54382,False,False,False,ForSale,For Sale (Broker),False,
37,351071165,351071165,ForSale,For Sale by Agent,,https://www.zillow.com/homedetails/3425-19th-St-NW-328-Edmonton-AB-T6T-2B5/351071165_zpid/,FOR_SALE,Apartment for sale,C$,"C$185,900",185900,"3425 19th St NW #328, Edmonton, AB T6T 2B5",3425 19th St NW #328,Edmonton,AB,T6T2B5,False,2,2,865.0,53.46877,-113.3706,False,False,False,ForSale,For Sale (Broker),False,
38,2068796667,2068796667,ForSale,For Sale by Agent,,https://www.zillow.com/homedetails/9328-106a-Ave-NW-Edmonton-AB-T5H-0S7/2068796667_zpid/,FOR_SALE,House for sale,C$,"C$269,000",269000,"9328 106a Ave NW, Edmonton, AB T5H 0S7",9328 106a Ave NW,Edmonton,AB,T5H0S7,False,2,2,1072.0,53.552723,-113.48092,False,False,False,ForSale,For Sale (Broker),False,
39,351059889,351059889,ForSale,For Sale by Agent,,https://www.zillow.com/homedetails/525-Secord-Blvd-NW-14-Edmonton-AB-T5T-7B8/351059889_zpid/,FOR_SALE,Townhouse for sale,C$,"C$374,998",374998,"525 Secord Blvd NW #14, Edmonton, AB T5T 7B8",525 Secord Blvd NW #14,Edmonton,AB,T5T7B8,False,3,3,1206.0,53.53618,-113.70374,False,False,False,ForSale,For Sale (Broker),False,
40,351123784,351123784,ForSale,For Sale by Agent,,https://www.zillow.com/homedetails/15539-132nd-St-NW-Edmonton-AB-T6V-1B4/351123784_zpid/,FOR_SALE,House for sale,C$,"C$468,800",468800,"15539 132nd St NW, Edmonton, AB T6V 1B4",15539 132nd St NW,Edmonton,AB,T6V1B4,False,5,4,1968.0,53.61795,-113.54934,False,False,False,ForSale,For Sale (Broker),False,
41,2066636079,2066636079,ForSale,For Sale by Agent,,https://www.zillow.com/homedetails/12936-69th-St-NW-Edmonton-AB-T5C-0H2/2066636079_zpid/,FOR_SALE,Multi-family home for sale,C$,"C$389,900",389900,"12936 69th St NW, Edmonton, AB T5C 0H2",12936 69th St NW,Edmonton,AB,T5C0H2,False,4,4,1190.0,53.588634,-113.44815,False,False,False,ForSale,For Sale (Broker),False,
42,351119258,351119258,ForSale,For Sale by Agent,,https://www.zillow.com/homedetails/7106-174th-Ave-S-Edmonton-AB-T5Z-0L3/351119258_zpid/,FOR_SALE,Multi-family home for sale,C$,"C$397,900",397900,"7106 174th Ave S, Edmonton, AB T5Z 0L3",7106 174th Ave S,Edmonton,AB,T5Z0L3,False,3,3,1322.0,53.63562,-113.45391,False,False,False,ForSale,For Sale (Broker),False,
43,351091552,351091552,ForSale,For Sale by Agent,,https://www.zillow.com/homedetails/16748-62nd-St-NW-Edmonton-AB-T5Y-0Z7/351091552_zpid/,FOR_SALE,House for sale,C$,"C$695,000",695000,"16748 62nd St NW, Edmonton, AB T5Y 0Z7",16748 62nd St NW,Edmonton,AB,T5Y0Z7,False,6,4,2582.0,53.631294,-113.43572,False,False,False,ForSale,For Sale (Broker),False,
44,350983207,350983207,ForSale,For Sale by Agent,,https://www.zillow.com/homedetails/12824-93rd-St-NW-Edmonton-AB-T5E-3T2/350983207_zpid/,FOR_SALE,House for sale,C$,"C$345,000",345000,"12824 93rd St NW, Edmonton, AB T5E 3T2",12824 93rd St NW,Edmonton,AB,T5E3T2,False,2,2,1048.0,53.58781,-113.48525,False,False,False,ForSale,For Sale (Broker),False,
45,350972775,350972775,ForSale,For Sale by Agent,,https://www.zillow.com/homedetails/17323-89th-St-NW-Edmonton-AB-T5Z-3W5/350972775_zpid/,FOR_SALE,House for sale,C$,"C$449,900",449900,"17323 89th St NW, Edmonton, AB T5Z 3W5",17323 89th St NW,Edmonton,AB,T5Z3W5,False,3,3,1710.0,53.63531,-113.4765,False,False,False,ForSale,For Sale (Broker),False,
46,351114603,351114603,ForSale,For Sale by Agent,,https://www.zillow.com/homedetails/8920-152a-Ave-NW-Edmonton-AB-T5E-5W1/351114603_zpid/,FOR_SALE,House for sale,C$,"C$329,900",329900,"8920 152a Ave NW, Edmonton, AB T5E 5W1",8920 152a Ave NW,Edmonton,AB,T5E5W1,False,3,3,1235.0,53.61385,-113.479065,False,False,False,ForSale,For Sale (Broker),False,
47,351053254,351053254,ForSale,For Sale by Agent,,https://www.zillow.com/homedetails/3670-139th-Ave-NW-209-Edmonton-AB-T5Y-3N5/351053254_zpid/,FOR_SALE,Apartment for sale,C$,"C$197,000",197000,"3670 139th Ave NW #209, Edmonton, AB T5Y 3N5",3670 139th Ave NW #209,Edmonton,AB,T5Y3N5,False,2,2,812.0,53.60349,-113.400024,False,False,False,ForSale,For Sale (Broker),False,
48,350957520,350957520,ForSale,For Sale by Agent,,https://www.zillow.com/homedetails/13511-67th-St-NW-Edmonton-AB-T5C-0C6/350957520_zpid/,FOR_SALE,House for sale,C$,"C$349,900",349900,"13511 67th St NW, Edmonton, AB T5C 0C6",13511 67th St NW,Edmonton,AB,T5C0C6,False,4,2,1105.0,53.596836,-113.44434,False,False,False,ForSale,For Sale (Broker),False,
49,2065592611,2065592611,ForSale,For Sale by Agent,,https://www.zillow.com/homedetails/11141-53rd-St-NW-Edmonton-AB-T5W-3K6/2065592611_zpid/,FOR_SALE,House for sale,C$,"C$439,999",439999,"11141 53rd St NW, Edmonton, AB T5W 3K6",11141 53rd St NW,Edmonton,AB,T5W3K6,False,3,1,904.0,53.566463,-113.42301,False,False,False,ForSale,For Sale (Broker),False,
50,351063603,351063603,ForSale,For Sale by Agent,,https://www.zillow.com/homedetails/11109-53rd-St-NW-Edmonton-AB-T5W-3K6/351063603_zpid/,FOR_SALE,House for sale,C$,"C$589,000",589000,"11109 53rd St NW, Edmonton, AB T5W 3K6",11109 53rd St NW,Edmonton,AB,T5W3K6,False,3,2,1768.0,53.565784,-113.422775,False,False,False,ForSale,For Sale (Broker),False,
51,350878077,350878077,ForSale,For Sale by Agent,,https://www.zillow.com/homedetails/12010-51st-St-NW-Edmonton-AB-T5W-3G7/350878077_zpid/,FOR_SALE,House for sale,C$,"C$200,000",200000,"12010 51st St NW, Edmonton, AB T5W 3G7",12010 51st St NW,Edmonton,AB,T5W3G7,False,3,2,1100.0,53.573982,-113.42057,False,False,False,ForSale,For Sale (Broker),False,2024-06-21 00:00:00
52,350180097,350180097,ForSale,For Sale by Agent,,https://www.zillow.com/homedetails/14515-95th-St-NW-Edmonton-AB-T5E-3Y7/350180097_zpid/,FOR_SALE,House for sale,C$,"C$375,000",375000,"14515 95th St NW, Edmonton, AB T5E 3Y7",14515 95th St NW,Edmonton,AB,T5E3Y7,False,4,3,1262.0,53.608143,-113.48607,False,False,False,ForSale,For Sale (Broker),False,
53,2056366300,2056366300,ForSale,For Sale by Agent,,https://www.zillow.com/homedetails/3048-143rd-Ave-NW-Edmonton-AB-T5Y-1M8/2056366300_zpid/,FOR_SALE,House for sale,C$,"C$339,900",339900,"3048 143rd Ave NW, Edmonton, AB T5Y 1M8",3048 143rd Ave NW,Edmonton,AB,T5Y1M8,False,3,3,1188.0,53.607693,-113.38811,False,False,False,ForSale,For Sale (Broker),False,
54,350515582,350515582,ForSale,For Sale by Agent,,https://www.zillow.com/homedetails/11947-92nd-St-NW-Edmonton-AB-T5G-1A7/350515582_zpid/,FOR_SALE,House for sale,C$,"C$285,000",285000,"11947 92nd St NW, Edmonton, AB T5G 1A7",11947 92nd St NW,Edmonton,AB,T5G1A7,False,4,2,874.0,53.5734,-113.48239,False,False,False,ForSale,For Sale (Broker),False,
55,350386383,350386383,ForSale,For Sale by Agent,,https://www.zillow.com/homedetails/15231-96th-St-NW-Edmonton-AB-T5E-6C3/350386383_zpid/,FOR_SALE,House for sale,C$,"C$375,000",375000,"15231 96th St NW, Edmonton, AB T5E 6C3",15231 96th St NW,Edmonton,AB,T5E6C3,False,5,3,1204.0,53.61339,-113.489426,False,False,False,ForSale,For Sale (Broker),False,
56,351051041,351051041,ForSale,For Sale by Agent,,https://www.zillow.com/homedetails/9515-160th-Ave-NW-12-Edmonton-AB-T5Z-0M4/351051041_zpid/,FOR_SALE,Townhouse for sale,C$,"C$318,900",318900,"9515 160th Ave NW #12, Edmonton, AB T5Z 0M4",9515 160th Ave NW #12,Edmonton,AB,T5Z0M4,False,3,3,1275.0,53.619537,-113.48893,False,False,False,ForSale,For Sale (Broker),False,
57,351056314,351056314,ForSale,For Sale by Agent,,https://www.zillow.com/homedetails/3804-114th-Ave-NW-Edmonton-AB-T5W-0S6/351056314_zpid/,FOR_SALE,House for sale,C$,"C$429,900",429900,"3804 114th Ave NW, Edmonton, AB T5W 0S6",3804 114th Ave NW,Edmonton,AB,T5W0S6,False,4,2,1299.0,53.566917,-113.40027,False,False,False,ForSale,For Sale (Broker),False,
58,350815300,350815300,ForSale,For Sale by Agent,,https://www.zillow.com/homedetails/450-Hyndman-Cres-NW-26-Edmonton-AB-T5A-0E2/350815300_zpid/,FOR_SALE,Townhouse for sale,C$,"C$241,000",241000,"450 Hyndman Cres NW #26, Edmonton, AB T5A 0E2",450 Hyndman Cres NW #26,Edmonton,AB,T5A0E2,False,3,2,1173.0,53.5797,-113.37591,False,False,False,ForSale,For Sale (Broker),False,
59,350882725,350882725,ForSale,For Sale by Agent,,https://www.zillow.com/homedetails/7202-127th-Ave-NW-Edmonton-AB-T5C-1R6/350882725_zpid/,FOR_SALE,House for sale,C$,"C$288,000",288000,"7202 127th Ave NW, Edmonton, AB T5C 1R6",7202 127th Ave NW,Edmonton,AB,T5C1R6,False,4,2,906.0,53.585342,-113.452644,False,False,False,ForSale,For Sale (Broker),False,
60,350951159,350951159,ForSale,For Sale by Agent,,https://www.zillow.com/homedetails/2943-130th-Ave-NW-Edmonton-AB-T5A-3M1/350951159_zpid/,FOR_SALE,Townhouse for sale,C$,"C$200,000",200000,"2943 130th Ave NW, Edmonton, AB T5A 3M1",2943 130th Ave NW,Edmonton,AB,T5A3M1,False,3,3,1482.0,53.58767,-113.38591,False,False,False,ForSale,For Sale (Broker),False,
61,350882189,350882189,ForSale,For Sale by Agent,,https://www.zillow.com/homedetails/3820-163rd-Ave-NW-Edmonton-AB-T5Y-0G6/350882189_zpid/,FOR_SALE,House for sale,C$,"C$534,900",534900,"3820 163rd Ave NW, Edmonton, AB T5Y 0G6",3820 163rd Ave NW,Edmonton,AB,T5Y0G6,False,4,4,2236.0,53.6249,-113.40248,False,False,False,ForSale,For Sale (Broker),False,
62,351054650,351054650,ForSale,For Sale by Agent,,https://www.zillow.com/homedetails/9404-134th-Ave-NW-Edmonton-AB-T5E-1H7/351054650_zpid/,FOR_SALE,House for sale,C$,"C$390,000",390000,"9404 134th Ave NW, Edmonton, AB T5E 1H7",9404 134th Ave NW,Edmonton,AB,T5E1H7,False,3,2,1140.0,53.596012,-113.4868,False,False,False,ForSale,For Sale (Broker),False,
63,349948779,349948779,ForSale,For Sale by Agent,,https://www.zillow.com/homedetails/4220-139th-Ave-NW-316-Edmonton-AB-T5Y-2Y2/349948779_zpid/,FOR_SALE,Apartment for sale,C$,"C$100,000",100000,"4220 139th Ave NW #316, Edmonton, AB T5Y 2Y2",4220 139th Ave NW #316,Edmonton,AB,T5Y2Y2,False,1,1,663.0,53.60107,-113.40897,False,False,False,ForSale,For Sale (Broker),False,
64,350874524,350874524,ForSale,For Sale by Agent,,https://www.zillow.com/homedetails/16708-94th-St-NW-Edmonton-AB-T5Z-1Y1/350874524_zpid/,FOR_SALE,House for sale,C$,"C$449,000",449000,"16708 94th St NW, Edmonton, AB T5Z 1Y1",16708 94th St NW,Edmonton,AB,T5Z1Y1,False,4,2,1114.0,53.62955,-113.48759,False,False,False,ForSale,For Sale (Broker),False,
65,2058172231,2058172231,ForSale,For Sale by Agent,,https://www.zillow.com/homedetails/3215-142nd-Ave-NW-Edmonton-AB-T5Y-1H9/2058172231_zpid/,FOR_SALE,Townhouse for sale,C$,"C$189,900",189900,"3215 142nd Ave NW, Edmonton, AB T5Y 1H9",3215 142nd Ave NW,Edmonton,AB,T5Y1H9,False,3,2,1285.0,53.606106,-113.39072,False,False,False,ForSale,For Sale (Broker),False,
66,351054386,351054386,ForSale,For Sale by Agent,,https://www.zillow.com/homedetails/6454-177a-Ave-NW-Edmonton-AB-T5Y-3X2/351054386_zpid/,FOR_SALE,House for sale,C$,"C$475,000",475000,"6454 177a Ave NW, Edmonton, AB T5Y 3X2",6454 177a Ave NW,Edmonton,AB,T5Y3X2,False,3,3,1630.0,53.63923,-113.43943,False,False,False,ForSale,For Sale (Broker),False,
67,350753058,350753058,ForSale,For Sale by Agent,,https://www.zillow.com/homedetails/130-Hyndman-Cres-NW-47-Edmonton-AB-T5A-0E8/350753058_zpid/,FOR_SALE,Multi-family home for sale,C$,"C$200,000",200000,"130 Hyndman Cres NW #47, Edmonton, AB T5A 0E8",130 Hyndman Cres NW #47,Edmonton,AB,T5A0E8,False,3,3,1304.0,53.578865,-113.38032,False,False,False,ForSale,For Sale (Broker),False,
68,350864841,350864841,ForSale,For Sale by Agent,,https://www.zillow.com/homedetails/7858-170a-Ave-NW-Edmonton-AB-T5Z-0C9/350864841_zpid/,FOR_SALE,House for sale,C$,"C$488,000",488000,"7858 170a Ave NW, Edmonton, AB T5Z 0C9",7858 170a Ave NW,Edmonton,AB,T5Z0C9,False,3,3,1867.0,53.632545,-113.464645,False,False,False,ForSale,For Sale (Broker),False,
69,349794660,349794660,ForSale,For Sale by Agent,,https://www.zillow.com/homedetails/12214-37th-St-NW-Edmonton-AB-T5W-2C7/349794660_zpid/,FOR_SALE,House for sale,C$,"C$319,900",319900,"12214 37th St NW, Edmonton, AB T5W 2C7",12214 37th St NW,Edmonton,AB,T5W2C7,False,3,2,920.0,53.57725,-113.39904,False,False,False,ForSale,For Sale (Broker),False,
70,2058416108,2058416108,ForSale,For Sale by Agent,,https://www.zillow.com/homedetails/16039-91st-St-NW-Edmonton-AB-T5Z-3P4/2058416108_zpid/,FOR_SALE,House for sale,C$,"C$421,000",421000,"16039 91st St NW, Edmonton, AB T5Z 3P4",16039 91st St NW,Edmonton,AB,T5Z3P4,False,3,3,1314.0,53.622353,-113.481476,False,False,False,ForSale,For Sale (Broker),False,
71,350152004,350152004,ForSale,For Sale by Agent,,https://www.zillow.com/homedetails/9124-119th-Ave-NW-Edmonton-AB-T5B-0W9/350152004_zpid/,FOR_SALE,House for sale,C$,"C$229,900",229900,"9124 119th Ave NW, Edmonton, AB T5B 0W9",9124 119th Ave NW,Edmonton,AB,T5B0W9,False,4,3,1164.0,53.57204,-113.48253,False,False,False,ForSale,For Sale (Broker),False,
72,350817942,350817942,ForSale,For Sale by Agent,,https://www.zillow.com/homedetails/16903-68th-St-NW-66-Edmonton-AB-T5Z-0R1/350817942_zpid/,FOR_SALE,Townhouse for sale,C$,"C$325,000",325000,"16903 68th St NW #66, Edmonton, AB T5Z 0R1",16903 68th St NW #66,Edmonton,AB,T5Z0R1,False,3,3,1360.0,53.630936,-113.44812,False,False,False,ForSale,For Sale (Broker),False,
73,2070883285,2070883285,ForSale,For Sale by Agent,,https://www.zillow.com/homedetails/12218-80th-St-NW-Edmonton-AB-T5B-2P3/2070883285_zpid/,FOR_SALE,House for sale,C$,"C$309,900",309900,"12218 80th St NW, Edmonton, AB T5B 2P3",12218 80th St NW,Edmonton,AB,T5B2P3,False,3,3,1361.0,53.57736,-113.46401,False,False,False,ForSale,For Sale (Broker),False,
74,2054374554,2054374554,ForSale,For Sale by Agent,,https://www.zillow.com/homedetails/13603-82nd-St-NW-Edmonton-AB-T5E-2V3/2054374554_zpid/,FOR_SALE,House for sale,C$,"C$435,000",435000,"13603 82nd St NW, Edmonton, AB T5E 2V3",13603 82nd St NW,Edmonton,AB,T5E2V3,False,5,3,1101.0,53.59847,-113.46686,False,False,False,ForSale,For Sale (Broker),False,
75,2061302203,2061302203,ForSale,For Sale by Agent,,https://www.zillow.com/homedetails/11536-90th-St-NW-Edmonton-AB-T5B-3Y1/2061302203_zpid/,FOR_SALE,House for sale,C$,"C$229,900",229900,"11536 90th St NW, Edmonton, AB T5B 3Y1",11536 90th St NW,Edmonton,AB,T5B3Y1,False,5,3,1055.0,53.566883,-113.47998,False,False,False,ForSale,For Sale (Broker),False,
76,348990513,348990513,ForSale,For Sale by Agent,,https://www.zillow.com/homedetails/8416-156th-Ave-NW-Edmonton-AB-T5Z-3B4/348990513_zpid/,FOR_SALE,House for sale,C$,"C$429,900",429900,"8416 156th Ave NW, Edmonton, AB T5Z 3B4",8416 156th Ave NW,Edmonton,AB,T5Z3B4,False,4,4,1638.0,53.616695,-113.4728,False,False,False,ForSale,For Sale (Broker),False,
77,344124158,344124158,ForSale,For Sale by Agent,,https://www.zillow.com/homedetails/2148-78th-St-NW-Edmonton-AB-T6K-2E5/344124158_zpid/,FOR_SALE,House for sale,C$,"C$379,000",379000,"2148 78th St NW, Edmonton, AB T6K 2E5",2148 78th St NW,Edmonton,AB,T6K2E5,False,4,2,1303.0,53.45172,-113.451355,False,False,False,ForSale,For Sale (Broker),False,
78,2054983980,2054983980,ForSale,For Sale by Agent,,https://www.zillow.com/homedetails/10028-94th-St-NW-Edmonton-AB-T5H-1Z3/2054983980_zpid/,FOR_SALE,House for sale,C$,"C$305,000",305000,"10028 94th St NW, Edmonton, AB T5H 1Z3",10028 94th St NW,Edmonton,AB,T5H1Z3,False,1,1,1268.0,53.542145,-113.47478,False,False,False,ForSale,For Sale (Broker),False,
79,351123967,351123967,ForSale,For Sale by Agent,,https://www.zillow.com/homedetails/509-90th-St-SW-Edmonton-AB-T6X-1C9/351123967_zpid/,FOR_SALE,House for sale,C$,"C$529,000",529000,"509 90th St SW, Edmonton, AB T6X 1C9",509 90th St SW,Edmonton,AB,T6X1C9,False,4,4,1880.0,53.428345,-113.47143,False,False,False,ForSale,For Sale (Broker),False,
80,347762101,347762101,ForSale,For Sale by Agent,,https://www.zillow.com/homedetails/3703-28th-St-NW-Edmonton-AB-T6T-1N3/347762101_zpid/,FOR_SALE,House for sale,C$,"C$559,000",559000,"3703 28th St NW, Edmonton, AB T6T 1N3",3703 28th St NW,Edmonton,AB,T6T1N3,False,4,4,1827.0,53.471428,-113.38206,False,False,False,ForSale,For Sale (Broker),False,
81,350860364,350860364,ForSale,For Sale by Agent,,https://www.zillow.com/homedetails/10851-93rd-St-NW-Edmonton-AB-T5H-1Y8/350860364_zpid/,FOR_SALE,House for sale,C$,"C$349,900",349900,"10851 93rd St NW, Edmonton, AB T5H 1Y8",10851 93rd St NW,Edmonton,AB,T5H1Y8,False,3,4,1373.0,53.556705,-113.481255,False,False,False,ForSale,For Sale (Broker),False,
82,350972694,350972694,ForSale,For Sale by Agent,,https://www.zillow.com/homedetails/3227-36th-Ave-NW-Edmonton-AB-T6T-1H2/350972694_zpid/,FOR_SALE,House for sale,C$,"C$549,900",549900,"3227 36th Ave NW, Edmonton, AB T6T 1H2",3227 36th Ave NW,Edmonton,AB,T6T1H2,False,4,3,2001.0,53.468487,-113.39283,False,False,False,ForSale,For Sale (Broker),False,
83,2069982714,2069982714,ForSale,For Sale by Agent,,https://www.zillow.com/homedetails/309-Maple-Wood-Dr-NW-Edmonton-AB-T6P-0A7/2069982714_zpid/,FOR_SALE,House for sale,C$,"C$108,000",108000,"309 Maple Wood Dr NW, Edmonton, AB T6P 0A7",309 Maple Wood Dr NW,Edmonton,AB,T6P0A7,False,3,2,1151.0,53.504166,-113.36627,False,False,False,ForSale,For Sale (Broker),False,
84,351055221,351055221,ForSale,For Sale by Agent,,https://www.zillow.com/homedetails/7905-96th-St-NW-401-Edmonton-AB-T6C-4R3/351055221_zpid/,FOR_SALE,Apartment for sale,C$,"C$309,900",309900,"7905 96th St NW #401, Edmonton, AB T6C 4R3",7905 96th St NW #401,Edmonton,AB,T6C4R3,False,2,2,1016.0,53.515144,-113.47599,False,False,False,ForSale,For Sale (Broker),False,
85,350919628,350919628,ForSale,For Sale by Agent,,https://www.zillow.com/homedetails/9716-76th-St-NW-Edmonton-AB-T6C-2K9/350919628_zpid/,FOR_SALE,House for sale,C$,"C$415,000",415000,"9716 76th St NW, Edmonton, AB T6C 2K9",9716 76th St NW,Edmonton,AB,T6C2K9,False,5,2,1158.0,53.53682,-113.44646,False,False,False,ForSale,For Sale (Broker),False,
86,351044551,351044551,ForSale,For Sale by Agent,,https://www.zillow.com/homedetails/812-Welsh-Dr-SW-425-Edmonton-AB-T6X-1Y7/351044551_zpid/,FOR_SALE,Apartment for sale,C$,"C$279,500",279500,"812 Welsh Dr SW #425, Edmonton, AB T6X 1Y7",812 Welsh Dr SW #425,Edmonton,AB,T6X1Y7,False,2,2,891.0,53.421104,-113.44222,False,False,False,ForSale,For Sale (Broker),False,
87,351044763,351044763,ForSale,For Sale by Agent,,https://www.zillow.com/homedetails/9116-106th-Ave-NW-204-Edmonton-AB-T5H-0M9/351044763_zpid/,FOR_SALE,Apartment for sale,C$,"C$72,500",72500,"9116 106th Ave NW #204, Edmonton, AB T5H 0M9",9116 106th Ave NW #204,Edmonton,AB,T5H0M9,False,1,1,607.0,53.552757,-113.4767,False,False,False,ForSale,For Sale (Broker),False,
88,351024606,351024606,ForSale,For Sale by Agent,,https://www.zillow.com/homedetails/9007-106a-Ave-NW-313-Edmonton-AB-T5H-3Y7/351024606_zpid/,FOR_SALE,Apartment for sale,C$,"C$165,000",165000,"9007 106a Ave NW #313, Edmonton, AB T5H 3Y7",9007 106a Ave NW #313,Edmonton,AB,T5H3Y7,False,2,2,1015.0,53.55307,-113.47498,False,False,False,ForSale,For Sale (Broker),False,
89,351069044,351069044,ForSale,For Sale by Agent,,https://www.zillow.com/homedetails/187-Ward-Cres-NW-Edmonton-AB-T6T-1M7/351069044_zpid/,FOR_SALE,House for sale,C$,"C$456,575",456575,"187 Ward Cres NW, Edmonton, AB T6T 1M7",187 Ward Cres NW,Edmonton,AB,T6T1M7,False,3,3,1948.0,53.47561,-113.37808,False,False,False,ForSale,For Sale (Broker),False,
90,351106263,351106263,ForSale,For Sale by Agent,,https://www.zillow.com/homedetails/9528-72nd-Ave-NW-Edmonton-AB-T6E-0Y4/351106263_zpid/,FOR_SALE,Multi-family home for sale,C$,"C$499,900",499900,"9528 72nd Ave NW, Edmonton, AB T6E 0Y4",9528 72nd Ave NW,Edmonton,AB,T6E0Y4,False,4,4,1526.0,53.50863,-113.47487,False,False,False,ForSale,For Sale (Broker),False,
91,2063266284,2063266284,ForSale,For Sale by Agent,,https://www.zillow.com/homedetails/4531-25th-Ave-NW-Edmonton-AB-T6L-3X6/2063266284_zpid/,FOR_SALE,House for sale,C$,"C$529,000",529000,"4531 25th Ave NW, Edmonton, AB T6L 3X6",4531 25th Ave NW,Edmonton,AB,T6L3X6,False,5,4,1083.0,53.455914,-113.41147,False,False,False,ForSale,For Sale (Broker),False,
92,351080459,351080459,ForSale,For Sale by Agent,,https://www.zillow.com/homedetails/221-79th-St-SW-Edmonton-AB-T6X-1N2/351080459_zpid/,FOR_SALE,House for sale,C$,"C$519,900",519900,"221 79th St SW, Edmonton, AB T6X 1N2",221 79th St SW,Edmonton,AB,T6X1N2,False,5,4,1707.0,53.431175,-113.455414,False,False,False,ForSale,For Sale (Broker),False,
93,351052665,351052665,ForSale,For Sale by Agent,,https://www.zillow.com/homedetails/11228-95th-St-NW-Edmonton-AB-T5G-1K9/351052665_zpid/,FOR_SALE,House for sale,C$,"C$243,000",243000,"11228 95th St NW, Edmonton, AB T5G 1K9",11228 95th St NW,Edmonton,AB,T5G1K9,False,3,2,871.0,53.56166,-113.48757,False,False,False,ForSale,For Sale (Broker),False,
94,351027430,351027430,ForSale,For Sale by Agent,,https://www.zillow.com/homedetails/4504-29th-Ave-NW-Edmonton-AB-T6L-4S4/351027430_zpid/,FOR_SALE,House for sale,C$,"C$419,900",419900,"4504 29th Ave NW, Edmonton, AB T6L 4S4",4504 29th Ave NW,Edmonton,AB,T6L4S4,False,4,3,1131.0,53.460316,-113.40876,False,False,False,ForSale,For Sale (Broker),False,
95,350923826,350923826,ForSale,For Sale by Agent,,https://www.zillow.com/homedetails/5404-7th-Ave-SW-218-Edmonton-AB-T6X-2K4/350923826_zpid/,FOR_SALE,Apartment for sale,C$,"C$189,900",189900,"5404 7th Ave SW #218, Edmonton, AB T6X 2K4",5404 7th Ave SW #218,Edmonton,AB,T6X2K4,False,1,1,593.0,53.426632,-113.42647,False,False,False,ForSale,For Sale (Broker),False,
96,350510015,350510015,ForSale,For Sale by Agent,,https://www.zillow.com/homedetails/7212-98th-Ave-NW-Edmonton-AB-T6A-0A7/350510015_zpid/,FOR_SALE,House for sale,C$,"C$349,900",349900,"7212 98th Ave NW, Edmonton, AB T6A 0A7",7212 98th Ave NW,Edmonton,AB,T6A0A7,False,4,2,1228.0,53.537865,-113.4391,False,False,False,ForSale,For Sale (Broker),False,
97,2065602437,2065602437,ForSale,For Sale by Agent,,https://www.zillow.com/homedetails/948-Summerside-Link-SW-Edmonton-AB-T6X-0C8/2065602437_zpid/,FOR_SALE,House for sale,C$,"C$749,555",749555,"948 Summerside Link SW, Edmonton, AB T6X 0C8",948 Summerside Link SW,Edmonton,AB,T6X0C8,False,5,4,2377.0,53.416466,-113.4768,False,False,False,ForSale,For Sale (Broker),False,
98,351051761,351051761,ForSale,For Sale by Agent,,https://www.zillow.com/homedetails/655-Watt-Blvd-SW-2-Edmonton-AB-T6X-0Y2/351051761_zpid/,FOR_SALE,Townhouse for sale,C$,"C$325,000",325000,"655 Watt Blvd SW #2, Edmonton, AB T6X 0Y2",655 Watt Blvd SW #2,Edmonton,AB,T6X0Y2,False,3,3,1463.0,53.422077,-113.43667,False,False,False,ForSale,For Sale (Broker),False,
99,350912908,350912908,ForSale,For Sale by Agent,,https://www.zillow.com/homedetails/8818-19th-Ave-SW-Edmonton-AB-T6X-1X6/350912908_zpid/,FOR_SALE,House for sale,C$,"C$2,900,000",2900000,"8818 19th Ave SW, Edmonton, AB T6X 1X6",8818 19th Ave SW,Edmonton,AB,T6X1X6,False,4,5,4407.0,53.41588,-113.46848,False,False,False,ForSale,For Sale (Broker),False,
100,349044586,349044586,ForSale,For Sale by Agent,,https://www.zillow.com/homedetails/23-Cliff-Cres-NW-Edmonton-AB-T6P-1B6/349044586_zpid/,FOR_SALE,House for sale,C$,"C$82,000",82000,"23 Cliff Cres NW, Edmonton, AB T6P 1B6",23 Cliff Cres NW,Edmonton,AB,T6P1B6,False,3,1,977.0,53.49883,-113.36166,False,False,False,ForSale,For Sale (Broker),False,
101,350882407,350882407,ForSale,For Sale by Agent,,https://www.zillow.com/homedetails/1636-27th-St-NW-Edmonton-AB-T6T-0R6/350882407_zpid/,FOR_SALE,House for sale,C$,"C$645,000",645000,"1636 27th St NW, Edmonton, AB T6T 0R6",1636 27th St NW,Edmonton,AB,T6T0R6,False,4,3,2172.0,53.44534,-113.38097,False,False,False,ForSale,For Sale (Broker),False,
102,351021124,351021124,ForSale,For Sale by Agent,,https://www.zillow.com/homedetails/7905-96th-St-NW-106-Edmonton-AB-T6C-4R3/351021124_zpid/,FOR_SALE,Apartment for sale,C$,"C$235,000",235000,"7905 96th St NW #106, Edmonton, AB T6C 4R3",7905 96th St NW #106,Edmonton,AB,T6C4R3,False,2,2,1012.0,53.51532,-113.476204,False,False,False,ForSale,For Sale (Broker),False,
103,2069335123,2069335123,ForSale,For Sale by Agent,,https://www.zillow.com/homedetails/1703-63rd-St-SW-Edmonton-AB-T6X-0S2/2069335123_zpid/,FOR_SALE,House for sale,C$,"C$450,000",450000,"1703 63rd St SW, Edmonton, AB T6X 0S2",1703 63rd St SW,Edmonton,AB,T6X0S2,False,3,3,1485.0,53.4195,-113.43764,False,False,False,ForSale,For Sale (Broker),False,
104,351052664,351052664,ForSale,For Sale by Agent,,https://www.zillow.com/homedetails/2320-30th-Ave-NW-Edmonton-AB-T6T-2B3/351052664_zpid/,FOR_SALE,House for sale,C$,"C$329,900",329900,"2320 30th Ave NW, Edmonton, AB T6T 2B3",2320 30th Ave NW,Edmonton,AB,T6T2B3,False,3,2,1162.0,53.460968,-113.37528,False,False,False,ForSale,For Sale (Broker),False,
105,350320785,350320785,ForSale,For Sale by Agent,,https://www.zillow.com/homedetails/1071-Millbourne-Rd-E-Edmonton-AB-T6K-1V1/350320785_zpid/,FOR_SALE,Multi-family home for sale,C$,"C$234,000",234000,"1071 Millbourne Rd E, Edmonton, AB T6K 1V1",1071 Millbourne Rd E,Edmonton,AB,T6K1V1,False,4,2,1006.0,53.480938,-113.446014,False,False,False,ForSale,For Sale (Broker),False,
106,350957519,350957519,ForSale,For Sale by Agent,,https://www.zillow.com/homedetails/17103-38th-St-NW-Edmonton-AB-T5Y-3R8/350957519_zpid/,FOR_SALE,House for sale,C$,"C$429,900",429900,"17103 38th St NW, Edmonton, AB T5Y 3R8",17103 38th St NW,Edmonton,AB,T5Y3R8,False,3,3,1458.0,53.632984,-113.40091,False,False,False,ForSale,For Sale (Broker),False,
107,2068949705,2068949705,ForSale,For Sale by Agent,,https://www.zillow.com/homedetails/14620-26th-St-NW-8-Edmonton-AB-T5Y-2J9/2068949705_zpid/,FOR_SALE,House for sale,C$,"C$174,900",174900,"14620 26th St NW #8, Edmonton, AB T5Y 2J9",14620 26th St NW #8,Edmonton,AB,T5Y2J9,False,2,1,1093.0,53.610634,-113.37983,False,False,False,ForSale,For Sale (Broker),False,
108,348908123,348908123,ForSale,For Sale by Agent,,https://www.zillow.com/homedetails/3312-116a-Ave-NW-Edmonton-AB-T5W-4X5/348908123_zpid/,FOR_SALE,Townhouse for sale,C$,"C$134,900",134900,"3312 116a Ave NW, Edmonton, AB T5W 4X5",3312 116a Ave NW,Edmonton,AB,T5W4X5,False,4,2,1312.0,53.569527,-113.39186,False,False,False,ForSale,For Sale (Broker),False,
109,2058499283,2058499283,ForSale,For Sale by Agent,,https://www.zillow.com/homedetails/11919-96th-St-NW-Edmonton-AB-T5G-1V6/2058499283_zpid/,FOR_SALE,House for sale,C$,"C$135,000",135000,"11919 96th St NW, Edmonton, AB T5G 1V6",11919 96th St NW,Edmonton,AB,T5G1V6,False,4,2,942.0,53.572575,-113.49015,False,False,False,ForSale,For Sale (Broker),False,
110,350779125,350779125,ForSale,For Sale by Agent,,https://www.zillow.com/homedetails/11917-77th-St-NW-Edmonton-AB-T5B-2G5/350779125_zpid/,FOR_SALE,Multi-family home for sale,C$,"C$275,000",275000,"11917 77th St NW, Edmonton, AB T5B 2G5",11917 77th St NW,Edmonton,AB,T5B2G5,False,4,3,1002.0,53.57253,-113.45915,False,False,False,ForSale,For Sale (Broker),False,
111,2058059477,2058059477,ForSale,For Sale by Agent,,https://www.zillow.com/homedetails/16907-82nd-St-NW-Edmonton-AB-T5Z-0H4/2058059477_zpid/,FOR_SALE,Townhouse for sale,C$,"C$309,900",309900,"16907 82nd St NW, Edmonton, AB T5Z 0H4",16907 82nd St NW,Edmonton,AB,T5Z0H4,False,3,3,1265.0,53.63025,-113.466965,False,False,False,ForSale,For Sale (Broker),False,
112,349578157,349578157,ForSale,For Sale by Agent,,https://www.zillow.com/homedetails/12011-51st-St-NW-Edmonton-AB-T5W-3G6/349578157_zpid/,FOR_SALE,House for sale,C$,"C$319,900",319900,"12011 51st St NW, Edmonton, AB T5W 3G6",12011 51st St NW,Edmonton,AB,T5W3G6,False,3,2,945.0,53.574177,-113.4195,False,False,False,ForSale,For Sale (Broker),False,
113,350921997,350921997,ForSale,For Sale by Agent,,https://www.zillow.com/homedetails/12115-101st-St-NW-Edmonton-AB-T5G-2C2/350921997_zpid/,FOR_SALE,House for sale,C$,"C$359,000",359000,"12115 101st St NW, Edmonton, AB T5G 2C2",12115 101st St NW,Edmonton,AB,T5G2C2,False,5,2,1250.0,53.575768,-113.49336,False,False,False,ForSale,For Sale (Broker),False,
114,350285062,350285062,ForSale,For Sale by Agent,,https://www.zillow.com/homedetails/2604-136th-Ave-NW-Edmonton-AB-T5A-3W4/350285062_zpid/,FOR_SALE,House for sale,C$,"C$359,800",359800,"2604 136th Ave NW, Edmonton, AB T5A 3W4",2604 136th Ave NW,Edmonton,AB,T5A3W4,False,4,3,1161.0,53.598434,-113.38246,False,False,False,ForSale,For Sale (Broker),False,
115,2061513649,2061513649,ForSale,For Sale by Agent,,https://www.zillow.com/homedetails/9116-129b-Ave-NW-Edmonton-AB-T5E-0P5/2061513649_zpid/,FOR_SALE,House for sale,C$,"C$429,900",429900,"9116 129b Ave NW, Edmonton, AB T5E 0P5",9116 129b Ave NW,Edmonton,AB,T5E0P5,False,5,2,1073.0,53.588455,-113.48206,False,False,False,ForSale,For Sale (Broker),False,
116,350503365,350503365,ForSale,For Sale by Agent,,https://www.zillow.com/homedetails/6059-180th-Ave-NW-Edmonton-AB-T5Y-3X1/350503365_zpid/,FOR_SALE,House for sale,C$,"C$450,000",450000,"6059 180th Ave NW, Edmonton, AB T5Y 3X1",6059 180th Ave NW,Edmonton,AB,T5Y3X1,False,3,3,1739.0,53.64194,-113.4287,False,False,False,ForSale,For Sale (Broker),False,
117,350710155,350710155,ForSale,For Sale by Agent,,https://www.zillow.com/homedetails/14520-52nd-St-NW-103-Edmonton-AB-T5A-3K5/350710155_zpid/,FOR_SALE,Apartment for sale,C$,"C$124,900",124900,"14520 52nd St NW #103, Edmonton, AB T5A 3K5",14520 52nd St NW #103,Edmonton,AB,T5A3K5,False,3,2,1231.0,53.60805,-113.42047,False,False,False,ForSale,For Sale (Broker),False,
118,2068668212,2068668212,ForSale,For Sale by Agent,,https://www.zillow.com/homedetails/7632-158th-Ave-NW-Edmonton-AB-T5Z-2R9/2068668212_zpid/,FOR_SALE,House for sale,C$,"C$449,900",449900,"7632 158th Ave NW, Edmonton, AB T5Z 2R9",7632 158th Ave NW,Edmonton,AB,T5Z2R9,False,3,3,1731.0,53.619625,-113.46012,False,False,False,ForSale,For Sale (Broker),False,
119,347815241,347815241,ForSale,For Sale by Agent,,https://www.zillow.com/homedetails/12144-92nd-St-NW-Edmonton-AB-T5G-1B2/347815241_zpid/,FOR_SALE,House for sale,C$,"C$259,900",259900,"12144 92nd St NW, Edmonton, AB T5G 1B2",12144 92nd St NW,Edmonton,AB,T5G1B2,False,3,2,817.0,53.576054,-113.48303,False,False,False,ForSale,For Sale (Broker),False,
120,2071049910,2071049910,ForSale,For Sale by Agent,,https://www.zillow.com/homedetails/916-166th-Ave-NE-Edmonton-AB-T5Y-0P6/2071049910_zpid/,FOR_SALE,House for sale,C$,"C$1,299,900",1299900,"916 166th Ave NE, Edmonton, AB T5Y 0P6",916 166th Ave NE,Edmonton,AB,T5Y0P6,False,5,6,3736.0,53.62759,-113.33005,False,False,False,ForSale,For Sale (Broker),False,
121,350858685,350858685,ForSale,For Sale by Agent,,https://www.zillow.com/homedetails/14603-59a-St-NW-Edmonton-AB-T5A-1Y8/350858685_zpid/,FOR_SALE,House for sale,C$,"C$297,600",297600,"14603 59a St NW, Edmonton, AB T5A 1Y8",14603 59a St NW,Edmonton,AB,T5A1Y8,False,4,1,1037.0,53.60867,-113.43382,False,False,False,ForSale,For Sale (Broker),False,
122,349964606,349964606,ForSale,For Sale by Agent,,https://www.zillow.com/homedetails/14208-36th-St-NW-77-Edmonton-AB-T5Y-0E4/349964606_zpid/,FOR_SALE,Multi-family home for sale,C$,"C$307,000",307000,"14208 36th St NW #77, Edmonton, AB T5Y 0E4",14208 36th St NW #77,Edmonton,AB,T5Y0E4,False,3,3,1367.0,53.606213,-113.39703,False,False,False,ForSale,For Sale (Broker),False,
123,348356186,348356186,ForSale,For Sale by Agent,,https://www.zillow.com/homedetails/Edmonton-AB-T5A-1C2/348356186_zpid/,FOR_SALE,Apartment for sale,C$,"C$45,000",45000,"(undisclosed Address), Edmonton, AB T5A 1C2",(undisclosed Address),Edmonton,AB,T5A1C2,True,2,1,754.0,,,False,False,False,ForSale,For Sale (Broker),False,
124,350931489,350931489,ForSale,For Sale by Agent,,https://www.zillow.com/homedetails/12236-89th-St-NW-Edmonton-AB-T5B-3W6/350931489_zpid/,FOR_SALE,House for sale,C$,"C$374,999",374999,"12236 89th St NW, Edmonton, AB T5B 3W6",12236 89th St NW,Edmonton,AB,T5B3W6,False,3,3,1599.0,53.577972,-113.47826,False,False,False,ForSale,For Sale (Broker),False,
125,347346349,347346349,ForSale,For Sale by Agent,,https://www.zillow.com/homedetails/14803-34th-St-NW-31-Edmonton-AB-T5Y-2L3/347346349_zpid/,FOR_SALE,Townhouse for sale,C$,"C$199,000",199000,"14803 34th St NW #31, Edmonton, AB T5Y 2L3",14803 34th St NW #31,Edmonton,AB,T5Y2L3,False,3,3,1167.0,53.611805,-113.39258,False,False,False,ForSale,For Sale (Broker),False,
126,345034911,345034911,ForSale,For Sale by Agent,,https://www.zillow.com/homedetails/11918-42nd-St-NW-Edmonton-AB-T5W-2N6/345034911_zpid/,FOR_SALE,House for sale,C$,"C$319,000",319000,"11918 42nd St NW, Edmonton, AB T5W 2N6",11918 42nd St NW,Edmonton,AB,T5W2N6,False,4,4,2093.0,53.57239,-113.40644,False,False,False,ForSale,For Sale (Broker),False,
127,2071067309,2071067309,ForSale,For Sale by Agent,,https://www.zillow.com/homedetails/11922-50th-St-NW-Edmonton-AB-T5W-3C2/2071067309_zpid/,FOR_SALE,House for sale,C$,"C$319,900",319900,"11922 50th St NW, Edmonton, AB T5W 3C2",11922 50th St NW,Edmonton,AB,T5W3C2,False,6,2,1311.0,53.572697,-113.41875,False,False,False,ForSale,For Sale (Broker),False,
128,350183771,350183771,ForSale,For Sale by Agent,,https://www.zillow.com/homedetails/4619-128th-Ave-NW-Edmonton-AB-T5A-2M7/350183771_zpid/,FOR_SALE,House for sale,C$,"C$349,000",349000,"4619 128th Ave NW, Edmonton, AB T5A 2M7",4619 128th Ave NW,Edmonton,AB,T5A2M7,False,4,2,1097.0,53.587666,-113.41439,False,False,False,ForSale,For Sale (Broker),False,
129,340046670,340046670,ForSale,For Sale by Agent,,https://www.zillow.com/homedetails/12603-45th-St-NW-Edmonton-AB-T5A-1L3/340046670_zpid/,FOR_SALE,House for sale,C$,"C$395,000",395000,"12603 45th St NW, Edmonton, AB T5A 1L3",12603 45th St NW,Edmonton,AB,T5A1L3,False,4,4,1414.0,53.58385,-113.40968,False,False,False,ForSale,For Sale (Broker),False,
130,2067386038,2067386038,ForSale,For Sale by Agent,,https://www.zillow.com/homedetails/7311-130a-Ave-NW-Edmonton-AB-T5C-1Z1/2067386038_zpid/,FOR_SALE,House for sale,C$,"C$349,000",349000,"7311 130a Ave NW, Edmonton, AB T5C 1Z1",7311 130a Ave NW,Edmonton,AB,T5C1Z1,False,5,2,1097.0,53.589916,-113.454735,False,False,False,ForSale,For Sale (Broker),False,
131,350510756,350510756,ForSale,For Sale by Agent,,https://www.zillow.com/homedetails/450-Hyndman-Cres-NW-44-Edmonton-AB-T5A-0E2/350510756_zpid/,FOR_SALE,Townhouse for sale,C$,"C$238,800",238800,"450 Hyndman Cres NW #44, Edmonton, AB T5A 0E2",450 Hyndman Cres NW #44,Edmonton,AB,T5A0E2,False,3,2,1185.0,53.57913,-113.37592,False,False,False,ForSale,For Sale (Broker),False,
132,350858552,350858552,ForSale,For Sale by Agent,,https://www.zillow.com/homedetails/16903-68th-St-NW-7-Edmonton-AB-T5Z-0R1/350858552_zpid/,FOR_SALE,Townhouse for sale,C$,"C$355,000",355000,"16903 68th St NW #7, Edmonton, AB T5Z 0R1",16903 68th St NW #7,Edmonton,AB,T5Z0R1,False,3,3,1400.0,53.63178,-113.44866,False,False,False,ForSale,For Sale (Broker),False,
133,2060133525,2060133525,ForSale,For Sale by Agent,,https://www.zillow.com/homedetails/11922-78th-St-NW-Edmonton-AB-T5B-2J5/2060133525_zpid/,FOR_SALE,House for sale,C$,"C$110,000",110000,"11922 78th St NW, Edmonton, AB T5B 2J5",11922 78th St NW,Edmonton,AB,T5B2J5,False,2,1,1009.0,53.57273,-113.46143,False,False,False,ForSale,For Sale (Broker),False,
134,350531747,350531747,ForSale,For Sale by Agent,,https://www.zillow.com/homedetails/13411-43rd-St-NW-Edmonton-AB-T5A-2Y7/350531747_zpid/,FOR_SALE,Townhouse for sale,C$,"C$209,900",209900,"13411 43rd St NW, Edmonton, AB T5A 2Y7",13411 43rd St NW,Edmonton,AB,T5A2Y7,False,3,2,1246.0,53.595337,-113.40762,False,False,False,ForSale,For Sale (Broker),False,
135,2069529500,2069529500,ForSale,For Sale by Agent,,https://www.zillow.com/homedetails/11243-90th-St-NW-Edmonton-AB-T5B-3X3/2069529500_zpid/,FOR_SALE,House for sale,C$,"C$259,000",259000,"11243 90th St NW, Edmonton, AB T5B 3X3",11243 90th St NW,Edmonton,AB,T5B3X3,False,3,2,1130.0,53.562332,-113.47944,False,False,False,ForSale,For Sale (Broker),False,
136,350456817,350456817,ForSale,For Sale by Agent,,https://www.zillow.com/homedetails/6031-165th-Ave-NW-Edmonton-AB-T5Y-0A9/350456817_zpid/,FOR_SALE,House for sale,C$,"C$511,000",511000,"6031 165th Ave NW, Edmonton, AB T5Y 0A9",6031 165th Ave NW,Edmonton,AB,T5Y0A9,False,5,4,1995.0,53.627148,-113.4336,False,False,False,ForSale,For Sale (Broker),False,
137,2062667882,2062667882,ForSale,For Sale by Agent,,https://www.zillow.com/homedetails/12011-77th-St-NW-Edmonton-AB-T5B-2G6/2062667882_zpid/,FOR_SALE,House for sale,C$,"C$314,900",314900,"12011 77th St NW, Edmonton, AB T5B 2G6",12011 77th St NW,Edmonton,AB,T5B2G6,False,4,2,876.0,53.574047,-113.459236,False,False,False,ForSale,For Sale (Broker),False,
138,350097499,350097499,ForSale,For Sale by Agent,,https://www.zillow.com/homedetails/5675-137th-Ave-NW-Edmonton-AB-T5A-2H4/350097499_zpid/,FOR_SALE,Townhouse for sale,C$,"C$180,000",180000,"5675 137th Ave NW, Edmonton, AB T5A 2H4",5675 137th Ave NW,Edmonton,AB,T5A2H4,False,3,2,943.0,53.5991,-113.428696,False,False,False,ForSale,For Sale (Broker),False,
139,347293106,347293106,ForSale,For Sale by Agent,,https://www.zillow.com/homedetails/17115-46th-St-NW-Edmonton-AB-T5Y-4B1/347293106_zpid/,FOR_SALE,House for sale,C$,"C$698,000",698000,"17115 46th St NW, Edmonton, AB T5Y 4B1",17115 46th St NW,Edmonton,AB,T5Y4B1,False,4,3,2615.0,53.633198,-113.408585,False,False,False,ForSale,For Sale (Broker),False,
140,349742107,349742107,ForSale,For Sale by Agent,,https://www.zillow.com/homedetails/6908-152a-Ave-NW-Edmonton-AB-T5C-2Y9/349742107_zpid/,FOR_SALE,House for sale,C$,"C$379,900",379900,"6908 152a Ave NW, Edmonton, AB T5C 2Y9",6908 152a Ave NW,Edmonton,AB,T5C2Y9,False,3,2,1089.0,53.61388,-113.44607,False,False,False,ForSale,For Sale (Broker),False,
141,350940071,350940071,ForSale,For Sale by Agent,,https://www.zillow.com/homedetails/165-Cy-Becker-Blvd-NW-2-Edmonton-AB-T5Y-3R4/350940071_zpid/,FOR_SALE,Townhouse for sale,C$,"C$324,900",324900,"165 Cy Becker Blvd NW #2, Edmonton, AB T5Y 3R4",165 Cy Becker Blvd NW #2,Edmonton,AB,T5Y3R4,False,3,3,1407.0,53.62969,-113.4007,False,False,False,ForSale,For Sale (Broker),False,
142,349658207,349658207,ForSale,For Sale by Agent,,https://www.zillow.com/homedetails/11329-95a-St-NW-Edmonton-AB-T5G-1P2/349658207_zpid/,FOR_SALE,House for sale,C$,"C$425,000",425000,"11329 95a St NW, Edmonton, AB T5G 1P2",11329 95a St NW,Edmonton,AB,T5G1P2,False,3,3,1425.0,53.563587,-113.48835,False,False,False,ForSale,For Sale (Broker),False,
143,350968684,350968684,ForSale,For Sale by Agent,,https://www.zillow.com/homedetails/37-Amberly-Ct-NW-Edmonton-AB-T5A-2H9/350968684_zpid/,FOR_SALE,Townhouse for sale,C$,"C$179,900",179900,"37 Amberly Ct NW, Edmonton, AB T5A 2H9",37 Amberly Ct NW,Edmonton,AB,T5A2H9,False,3,2,1069.0,53.60889,-113.42466,False,False,False,ForSale,For Sale (Broker),False,
144,349015178,349015178,ForSale,For Sale by Agent,,https://www.zillow.com/homedetails/8111-132nd-Ave-NW-Edmonton-AB-T5C-2B3/349015178_zpid/,FOR_SALE,House for sale,C$,"C$349,000",349000,"8111 132nd Ave NW, Edmonton, AB T5C 2B3",8111 132nd Ave NW,Edmonton,AB,T5C2B3,False,4,2,1230.0,53.591946,-113.466156,False,False,False,ForSale,For Sale (Broker),False,
145,2070875374,2070875374,ForSale,For Sale by Agent,,https://www.zillow.com/homedetails/1286-McConachie-Blvd-NW-Edmonton-AB-T5Y-3C5/2070875374_zpid/,FOR_SALE,Multi-family home for sale,C$,"C$485,000",485000,"1286 McConachie Blvd NW, Edmonton, AB T5Y 3C5",1286 McConachie Blvd NW,Edmonton,AB,T5Y3C5,False,4,4,1392.0,53.63997,-113.433105,False,False,False,ForSale,For Sale (Broker),False,
146,350864550,350864550,ForSale,For Sale by Agent,,https://www.zillow.com/homedetails/11345-95a-St-NW-Edmonton-AB-T5G-1P2/350864550_zpid/,FOR_SALE,House for sale,C$,"C$229,900",229900,"11345 95a St NW, Edmonton, AB T5G 1P2",11345 95a St NW,Edmonton,AB,T5G1P2,False,2,2,810.0,53.564056,-113.488365,False,False,False,ForSale,For Sale (Broker),False,
147,350240070,350240070,ForSale,For Sale by Agent,,https://www.zillow.com/homedetails/11310-96th-St-NW-Edmonton-AB-T5G-1T3/350240070_zpid/,FOR_SALE,House for sale,C$,"C$220,000",220000,"11310 96th St NW, Edmonton, AB T5G 1T3",11310 96th St NW,Edmonton,AB,T5G1T3,False,3,2,884.0,53.563072,-113.49042,False,False,False,ForSale,For Sale (Broker),False,
148,350314068,350314068,ForSale,For Sale by Agent,,https://www.zillow.com/homedetails/15103-67th-St-NW-Edmonton-AB-T5C-0C9/350314068_zpid/,FOR_SALE,House for sale,C$,"C$349,900",349900,"15103 67th St NW, Edmonton, AB T5C 0C9",15103 67th St NW,Edmonton,AB,T5C0C9,False,3,1,1129.0,53.61277,-113.44365,False,False,False,ForSale,For Sale (Broker),False,
149,351059503,351059503,ForSale,For Sale by Agent,,https://www.zillow.com/homedetails/13523-93rd-St-NW-Edmonton-AB-T5E-3T7/351059503_zpid/,FOR_SALE,House for sale,C$,"C$259,900",259900,"13523 93rd St NW, Edmonton, AB T5E 3T7",13523 93rd St NW,Edmonton,AB,T5E3T7,False,4,2,1006.0,53.598408,-113.48458,False,False,False,ForSale,For Sale (Broker),False,
150,2056165980,2056165980,ForSale,For Sale by Agent,,https://www.zillow.com/homedetails/6422-164a-Ave-NW-Edmonton-AB-T5Y-3J3/2056165980_zpid/,FOR_SALE,House for sale,C$,"C$560,000",560000,"6422 164a Ave NW, Edmonton, AB T5Y 3J3",6422 164a Ave NW,Edmonton,AB,T5Y3J3,False,5,3,1502.0,53.626972,-113.44103,False,False,False,ForSale,For Sale (Broker),False,
151,350533669,350533669,ForSale,For Sale by Agent,,https://www.zillow.com/homedetails/2316-138th-Ave-NW-Edmonton-AB-T5Y-1C2/350533669_zpid/,FOR_SALE,House for sale,C$,"C$350,000",350000,"2316 138th Ave NW, Edmonton, AB T5Y 1C2",2316 138th Ave NW,Edmonton,AB,T5Y1C2,False,4,3,978.0,53.600834,-113.37732,False,False,False,ForSale,For Sale (Broker),False,
152,346182872,346182872,ForSale,For Sale by Agent,,https://www.zillow.com/homedetails/11847-92nd-St-NW-Edmonton-AB-T5G-1A4/346182872_zpid/,FOR_SALE,House for sale,C$,"C$249,000",249000,"11847 92nd St NW, Edmonton, AB T5G 1A4",11847 92nd St NW,Edmonton,AB,T5G1A4,False,4,2,911.0,53.571728,-113.4826,False,False,False,ForSale,For Sale (Broker),False,
153,2056055344,2056055344,ForSale,For Sale by Agent,,https://www.zillow.com/homedetails/17453-77a-St-NW-Edmonton-AB-T5Z-0P5/2056055344_zpid/,FOR_SALE,House for sale,C$,"C$424,900",424900,"17453 77a St NW, Edmonton, AB T5Z 0P5",17453 77a St NW,Edmonton,AB,T5Z0P5,False,2,3,1620.0,53.636723,-113.459854,False,False,False,ForSale,For Sale (Broker),False,
154,2056450657,2056450657,ForSale,For Sale by Agent,,https://www.zillow.com/homedetails/9116-137th-Ave-NW-Edmonton-AB-T5E-1Y5/2056450657_zpid/,FOR_SALE,House for sale,C$,"C$399,000",399000,"9116 137th Ave NW, Edmonton, AB T5E 1Y5",9116 137th Ave NW,Edmonton,AB,T5E1Y5,False,5,4,2780.0,53.599922,-113.48295,False,False,False,ForSale,For Sale (Broker),False,
155,2056443857,2056443857,ForSale,For Sale by Agent,,https://www.zillow.com/homedetails/11229-86th-St-NW-Edmonton-AB-T5B-3H7/2056443857_zpid/,FOR_SALE,House for sale,C$,"C$299,777",299777,"11229 86th St NW, Edmonton, AB T5B 3H7",11229 86th St NW,Edmonton,AB,T5B3H7,False,3,2,902.0,53.56218,-113.47277,False,False,False,ForSale,For Sale (Broker),False,
156,349768629,349768629,ForSale,For Sale by Agent,,https://www.zillow.com/homedetails/17817-70a-St-NW-Edmonton-AB-T5Z-0V4/349768629_zpid/,FOR_SALE,House for sale,C$,"C$494,900",494900,"17817 70a St NW, Edmonton, AB T5Z 0V4",17817 70a St NW,Edmonton,AB,T5Z0V4,False,4,4,1582.0,53.642635,-113.447296,False,False,False,ForSale,For Sale (Broker),False,
157,350461897,350461897,ForSale,For Sale by Agent,,https://www.zillow.com/homedetails/8412-134th-Ave-NW-Edmonton-AB-T5E-1H2/350461897_zpid/,FOR_SALE,House for sale,C$,"C$429,990",429990,"8412 134th Ave NW, Edmonton, AB T5E 1H2",8412 134th Ave NW,Edmonton,AB,T5E1H2,False,5,2,1059.0,53.595497,-113.47051,False,False,False,ForSale,For Sale (Broker),False,
158,350916385,350916385,ForSale,For Sale by Agent,,https://www.zillow.com/homedetails/9028-136th-Ave-NW-Edmonton-AB-T5E-1V7/350916385_zpid/,FOR_SALE,House for sale,C$,"C$419,900",419900,"9028 136th Ave NW, Edmonton, AB T5E 1V7",9028 136th Ave NW,Edmonton,AB,T5E1V7,False,4,2,1059.0,53.598637,-113.48149,False,False,False,ForSale,For Sale (Broker),False,
159,349454050,349454050,ForSale,For Sale by Agent,,https://www.zillow.com/homedetails/15703-85th-St-NW-Edmonton-AB-T5Z-3B5/349454050_zpid/,FOR_SALE,House for sale,C$,"C$489,000",489000,"15703 85th St NW, Edmonton, AB T5Z 3B5",15703 85th St NW,Edmonton,AB,T5Z3B5,False,5,3,1528.0,53.61799,-113.471924,False,False,False,ForSale,For Sale (Broker),False,
160,350098489,350098489,ForSale,For Sale by Agent,,https://www.zillow.com/homedetails/16404-90th-St-NW-Edmonton-AB-T5Z-3K1/350098489_zpid/,FOR_SALE,House for sale,C$,"C$449,900",449900,"16404 90th St NW, Edmonton, AB T5Z 3K1",16404 90th St NW,Edmonton,AB,T5Z3K1,False,5,2,1140.0,53.62636,-113.48078,False,False,False,ForSale,For Sale (Broker),False,
161,348889378,348889378,ForSale,For Sale by Agent,,https://www.zillow.com/homedetails/3027-151st-Ave-NW-Edmonton-AB-T5Y-3W4/348889378_zpid/,FOR_SALE,Townhouse for sale,C$,"C$310,000",310000,"3027 151st Ave NW, Edmonton, AB T5Y 3W4",3027 151st Ave NW,Edmonton,AB,T5Y3W4,False,3,3,1435.0,53.61381,-113.386444,False,False,False,ForSale,For Sale (Broker),False,
162,2065601716,2065601716,ForSale,For Sale by Agent,,https://www.zillow.com/homedetails/16907-55th-St-NW-Edmonton-AB-T5Y-0R3/2065601716_zpid/,FOR_SALE,Townhouse for sale,C$,"C$379,999",379999,"16907 55th St NW, Edmonton, AB T5Y 0R3",16907 55th St NW,Edmonton,AB,T5Y0R3,False,3,3,1616.0,53.63066,-113.41783,False,False,False,ForSale,For Sale (Broker),False,
163,2068949686,2068949686,ForSale,For Sale by Agent,,https://www.zillow.com/homedetails/15128-22nd-St-NW-23-Edmonton-AB-T5Y-2W5/2068949686_zpid/,FOR_SALE,Townhouse for sale,C$,"C$219,900",219900,"15128 22nd St NW #23, Edmonton, AB T5Y 2W5",15128 22nd St NW #23,Edmonton,AB,T5Y2W5,False,2,2,1172.0,53.614162,-113.37378,False,False,False,ForSale,For Sale (Broker),False,
164,348613641,348613641,ForSale,For Sale by Agent,,https://www.zillow.com/homedetails/9560-143rd-Ave-NW-Edmonton-AB-T5E-2H3/348613641_zpid/,FOR_SALE,House for sale,C$,"C$464,000",464000,"9560 143rd Ave NW, Edmonton, AB T5E 2H3",9560 143rd Ave NW,Edmonton,AB,T5E2H3,False,6,3,2097.0,53.605988,-113.49072,False,False,False,ForSale,For Sale (Broker),False,
165,2062579364,2062579364,ForSale,For Sale by Agent,,https://www.zillow.com/homedetails/903-Ebbers-Cres-NW-Edmonton-AB-T5Y-3V1/2062579364_zpid/,FOR_SALE,Multi-family home for sale,C$,"C$419,900",419900,"903 Ebbers Cres NW, Edmonton, AB T5Y 3V1",903 Ebbers Cres NW,Edmonton,AB,T5Y3V1,False,4,4,1485.0,53.612545,-113.40336,False,False,False,ForSale,For Sale (Broker),False,
166,350404954,350404954,ForSale,For Sale by Agent,,https://www.zillow.com/homedetails/11924-51st-St-NW-Edmonton-AB-T5W-3G4/350404954_zpid/,FOR_SALE,House for sale,C$,"C$289,900",289900,"11924 51st St NW, Edmonton, AB T5W 3G4",11924 51st St NW,Edmonton,AB,T5W3G4,False,3,2,824.0,53.572674,-113.420586,False,False,False,ForSale,For Sale (Broker),False,
167,350937667,350937667,ForSale,For Sale by Agent,,https://www.zillow.com/homedetails/4315-151a-Ave-NW-Edmonton-AB-T5Y-3B3/350937667_zpid/,FOR_SALE,House for sale,C$,"C$420,000",420000,"4315 151a Ave NW, Edmonton, AB T5Y 3B3",4315 151a Ave NW,Edmonton,AB,T5Y3B3,False,3,3,1247.0,53.613518,-113.40795,False,False,False,ForSale,For Sale (Broker),False,
168,348933928,348933928,ForSale,For Sale by Agent,,https://www.zillow.com/homedetails/5203-149th-Ave-NW-22-Edmonton-AB-T5A-1B5/348933928_zpid/,FOR_SALE,Townhouse for sale,C$,"C$279,888",279888,"5203 149th Ave NW #22, Edmonton, AB T5A 1B5",5203 149th Ave NW #22,Edmonton,AB,T5A1B5,False,3,2,1189.0,53.61192,-113.421906,False,False,False,ForSale,For Sale (Broker),False,
169,350939482,350939482,ForSale,For Sale by Agent,,https://www.zillow.com/homedetails/309-Clareview-Station-Dr-NW-221-Edmonton-AB-T5Y-0C5/350939482_zpid/,FOR_SALE,Apartment for sale,C$,"C$194,900",194900,"309 Clareview Station Dr NW #221, Edmonton, AB T5Y 0C5",309 Clareview Station Dr NW #221,Edmonton,AB,T5Y0C5,False,2,2,902.0,53.601944,-113.41408,False,False,False,ForSale,For Sale (Broker),False,
170,350311969,350311969,ForSale,For Sale by Agent,,https://www.zillow.com/homedetails/5507-143rd-Ave-NW-Edmonton-AB-T5A-1J9/350311969_zpid/,FOR_SALE,House for sale,C$,"C$349,900",349900,"5507 143rd Ave NW, Edmonton, AB T5A 1J9",5507 143rd Ave NW,Edmonton,AB,T5A1J9,False,3,2,991.0,53.605797,-113.42676,False,False,False,ForSale,For Sale (Broker),False,
171,350732215,350732215,ForSale,For Sale by Agent,,https://www.zillow.com/homedetails/11917-93rd-St-NW-2-Edmonton-AB-T5G-1E6/350732215_zpid/,FOR_SALE,Multi-family home for sale,C$,"C$320,000",320000,"11917 93rd St NW #2, Edmonton, AB T5G 1E6",11917 93rd St NW #2,Edmonton,AB,T5G1E6,False,4,4,1095.0,53.57249,-113.483864,False,False,False,ForSale,For Sale (Broker),False,
172,348472149,348472149,ForSale,For Sale by Agent,,https://www.zillow.com/homedetails/11524-95th-St-NW-Edmonton-AB-T5G-1L6/348472149_zpid/,FOR_SALE,House for sale,C$,"C$209,900",209900,"11524 95th St NW, Edmonton, AB T5G 1L6",11524 95th St NW,Edmonton,AB,T5G1L6,False,4,2,937.0,53.566395,-113.48763,False,False,False,ForSale,For Sale (Broker),False,
173,2086249383,2086249383,ForSale,For Sale by Agent,,https://www.zillow.com/homedetails/11327-93rd-St-NW-Edmonton-AB-T5G-1C3/2086249383_zpid/,FOR_SALE,House for sale,C$,"C$174,900",174900,"11327 93rd St NW, Edmonton, AB T5G 1C3",11327 93rd St NW,Edmonton,AB,T5G1C3,False,3,1,613.0,53.563507,-113.48398,False,False,False,ForSale,For Sale (Broker),False,
174,350926110,350926110,ForSale,For Sale by Agent,,https://www.zillow.com/homedetails/16335-84th-St-NW-42-Edmonton-AB-T5Z-0S2/350926110_zpid/,FOR_SALE,Townhouse for sale,C$,"C$285,000",285000,"16335 84th St NW #42, Edmonton, AB T5Z 0S2",16335 84th St NW #42,Edmonton,AB,T5Z0S2,False,3,2,1203.0,53.62511,-113.47242,False,False,False,ForSale,For Sale (Broker),False,
175,350194938,350194938,ForSale,For Sale by Agent,,https://www.zillow.com/homedetails/11924-89th-St-NW-Edmonton-AB-T5B-3V8/350194938_zpid/,FOR_SALE,House for sale,C$,"C$269,900",269900,"11924 89th St NW, Edmonton, AB T5B 3V8",11924 89th St NW,Edmonton,AB,T5B3V8,False,3,1,1064.0,53.572704,-113.47833,False,False,False,ForSale,For Sale (Broker),False,
176,350238677,350238677,ForSale,For Sale by Agent,,https://www.zillow.com/homedetails/105-Griesbach-Rd-NW-Edmonton-AB-T5E-6L8/350238677_zpid/,FOR_SALE,House for sale,C$,"C$395,000",395000,"105 Griesbach Rd NW, Edmonton, AB T5E 6L8",105 Griesbach Rd NW,Edmonton,AB,T5E6L8,False,4,1,1335.0,53.607967,-113.49265,False,False,False,ForSale,For Sale (Broker),False,
177,350502216,350502216,ForSale,For Sale by Agent,,https://www.zillow.com/homedetails/8403-164th-Ave-NW-12-Edmonton-AB-T5Z-3Y2/350502216_zpid/,FOR_SALE,Multi-family home for sale,C$,"C$315,000",315000,"8403 164th Ave NW #12, Edmonton, AB T5Z 3Y2",8403 164th Ave NW #12,Edmonton,AB,T5Z3Y2,False,3,4,1679.0,53.625893,-113.47458,False,False,False,ForSale,For Sale (Broker),False,
178,350929234,350929234,ForSale,For Sale by Agent,,https://www.zillow.com/homedetails/488-Klarvatten-Lake-Wynd-NW-Edmonton-AB-T5Z-3G7/350929234_zpid/,FOR_SALE,House for sale,C$,"C$699,900",699900,"488 Klarvatten Lake Wynd NW, Edmonton, AB T5Z 3G7",488 Klarvatten Lake Wynd NW,Edmonton,AB,T5Z3G7,False,4,4,1757.0,53.631172,-113.4722,False,False,False,ForSale,For Sale (Broker),False,
179,350964065,350964065,ForSale,For Sale by Agent,,https://www.zillow.com/homedetails/12012-50th-St-NW-Edmonton-AB-T5W-3C4/350964065_zpid/,FOR_SALE,House for sale,C$,"C$259,000",259000,"12012 50th St NW, Edmonton, AB T5W 3C4",12012 50th St NW,Edmonton,AB,T5W3C4,False,4,3,1108.0,53.57394,-113.41883,False,False,False,ForSale,For Sale (Broker),False,
180,346550236,346550236,ForSale,For Sale by Agent,,https://www.zillow.com/homedetails/333-Brintnell-Blvd-NW-Edmonton-AB-T5Y-3J7/346550236_zpid/,FOR_SALE,House for sale,C$,"C$409,900",409900,"333 Brintnell Blvd NW, Edmonton, AB T5Y 3J7",333 Brintnell Blvd NW,Edmonton,AB,T5Y3J7,False,4,3,1398.0,53.622883,-113.40266,False,False,False,ForSale,For Sale (Broker),False,
181,2056603104,2056603104,ForSale,For Sale by Agent,,https://www.zillow.com/homedetails/12826-70th-St-NW-Edmonton-AB-T5C-0J8/2056603104_zpid/,FOR_SALE,House for sale,C$,"C$370,000",370000,"12826 70th St NW, Edmonton, AB T5C 0J8",12826 70th St NW,Edmonton,AB,T5C0J8,False,6,3,1733.0,53.586884,-113.44947,False,False,False,ForSale,For Sale (Broker),False,
182,350743552,350743552,ForSale,For Sale by Agent,,https://www.zillow.com/homedetails/1430-152nd-Ave-NW-Edmonton-AB-T5Y-0Y6/350743552_zpid/,FOR_SALE,Multi-family home for sale,C$,"C$375,000",375000,"1430 152nd Ave NW, Edmonton, AB T5Y 0Y6",1430 152nd Ave NW,Edmonton,AB,T5Y0Y6,False,3,3,1404.0,53.615345,-113.36532,False,False,False,ForSale,For Sale (Broker),False,
183,350529236,350529236,ForSale,For Sale by Agent,,https://www.zillow.com/homedetails/14823-75th-St-NW-Edmonton-AB-T5C-0Z8/350529236_zpid/,FOR_SALE,House for sale,C$,"C$449,900",449900,"14823 75th St NW, Edmonton, AB T5C 0Z8",14823 75th St NW,Edmonton,AB,T5C0Z8,False,4,2,2206.0,53.61054,-113.45551,False,False,False,ForSale,For Sale (Broker),False,
184,350564119,350564119,ForSale,For Sale by Agent,,https://www.zillow.com/homedetails/11611-69th-St-NW-Edmonton-AB-T5B-1S1/350564119_zpid/,FOR_SALE,House for sale,C$,"C$400,000",400000,"11611 69th St NW, Edmonton, AB T5B 1S1",11611 69th St NW,Edmonton,AB,T5B1S1,False,4,2,1293.0,53.56972,-113.44745,False,False,False,ForSale,For Sale (Broker),False,
185,2056551394,2056551394,ForSale,For Sale by Agent,,https://www.zillow.com/homedetails/6914-132nd-Ave-NW-Edmonton-AB-T5C-0A2/2056551394_zpid/,FOR_SALE,Multi-family home for sale,C$,"C$399,900",399900,"6914 132nd Ave NW, Edmonton, AB T5C 0A2",6914 132nd Ave NW,Edmonton,AB,T5C0A2,False,3,3,1425.0,53.592556,-113.44819,False,False,False,ForSale,For Sale (Broker),False,
186,2067979278,2067979278,ForSale,For Sale by Agent,,https://www.zillow.com/homedetails/16720-94th-St-NW-Edmonton-AB-T5Z-1Y1/2067979278_zpid/,FOR_SALE,House for sale,C$,"C$360,000",360000,"16720 94th St NW, Edmonton, AB T5Z 1Y1",16720 94th St NW,Edmonton,AB,T5Z1Y1,False,3,2,1152.0,53.629818,-113.487236,False,False,False,ForSale,For Sale (Broker),False,
187,2068475790,2068475790,ForSale,For Sale by Agent,,https://www.zillow.com/homedetails/4018-112th-Ave-NW-Edmonton-AB-T5W-0M8/2068475790_zpid/,FOR_SALE,House for sale,C$,"C$389,900",389900,"4018 112th Ave NW, Edmonton, AB T5W 0M8",4018 112th Ave NW,Edmonton,AB,T5W0M8,False,3,2,1008.0,53.56521,-113.40422,False,False,False,ForSale,For Sale (Broker),False,
188,2055326421,2055326421,ForSale,For Sale by Agent,,https://www.zillow.com/homedetails/16123-76th-St-NW-Edmonton-AB-T5Z-3R8/2055326421_zpid/,FOR_SALE,House for sale,C$,"C$624,900",624900,"16123 76th St NW, Edmonton, AB T5Z 3R8",16123 76th St NW,Edmonton,AB,T5Z3R8,False,4,4,2046.0,53.623898,-113.46037,False,False,False,ForSale,For Sale (Broker),False,
189,350938976,350938976,ForSale,For Sale by Agent,,https://www.zillow.com/homedetails/11205-64th-St-NW-Edmonton-AB-T5W-4H4/350938976_zpid/,FOR_SALE,House for sale,C$,"C$399,000",399000,"11205 64th St NW, Edmonton, AB T5W 4H4",11205 64th St NW,Edmonton,AB,T5W4H4,False,2,1,974.0,53.565495,-113.436226,False,False,False,ForSale,For Sale (Broker),False,
190,343529414,343529414,ForSale,For Sale by Agent,,https://www.zillow.com/homedetails/13435-101st-St-NW-Edmonton-AB-T5E-4G5/343529414_zpid/,FOR_SALE,Multi-family home for sale,C$,"C$329,900",329900,"13435 101st St NW, Edmonton, AB T5E 4G5",13435 101st St NW,Edmonton,AB,T5E4G5,False,3,1,1008.0,53.595924,-113.49337,False,False,False,ForSale,For Sale (Broker),False,
191,347767309,347767309,ForSale,For Sale by Agent,,https://www.zillow.com/homedetails/9525-162nd-Ave-NW-322-Edmonton-AB-T5Z-3V2/347767309_zpid/,FOR_SALE,Condo for sale,C$,"C$229,500",229500,"9525 162nd Ave NW #322, Edmonton, AB T5Z 3V2",9525 162nd Ave NW #322,Edmonton,AB,T5Z3V2,False,3,3,,53.62332,-113.48696,False,False,False,ForSale,For Sale (Broker),False,
192,348837569,348837569,ForSale,For Sale by Agent,,https://www.zillow.com/homedetails/13452-Fort-Rd-NW-4-Edmonton-AB-T5A-1C5/348837569_zpid/,FOR_SALE,Apartment for sale,C$,"C$79,900",79900,"13452 Fort Rd NW #4, Edmonton, AB T5A 1C5",13452 Fort Rd NW #4,Edmonton,AB,T5A1C5,False,2,2,1095.0,53.595654,-113.42739,False,False,False,ForSale,For Sale (Broker),False,
193,2056445225,2056445225,ForSale,For Sale by Agent,,https://www.zillow.com/homedetails/4006-157a-Ave-NW-Edmonton-AB-T5Y-0A4/2056445225_zpid/,FOR_SALE,House for sale,C$,"C$539,900",539900,"4006 157a Ave NW, Edmonton, AB T5Y 0A4",4006 157a Ave NW,Edmonton,AB,T5Y0A4,False,4,3,2219.0,53.61972,-113.40101,False,False,False,ForSale,For Sale (Broker),False,
194,344052513,344052513,ForSale,For Sale by Agent,,https://www.zillow.com/homedetails/11615-94th-St-NW-Edmonton-AB-T5G-1H9/344052513_zpid/,FOR_SALE,House for sale,C$,"C$450,000",450000,"11615 94th St NW, Edmonton, AB T5G 1H9",11615 94th St NW,Edmonton,AB,T5G1H9,False,5,3,1105.0,53.56785,-113.48537,False,False,False,ForSale,For Sale (Broker),False,
195,2061579745,2061579745,ForSale,For Sale by Agent,,https://www.zillow.com/homedetails/14628-25th-St-NW-Edmonton-AB-T5Y-1X4/2061579745_zpid/,FOR_SALE,Townhouse for sale,C$,"C$179,900",179900,"14628 25th St NW, Edmonton, AB T5Y 1X4",14628 25th St NW,Edmonton,AB,T5Y1X4,False,3,2,1002.0,53.610756,-113.3788,False,False,False,ForSale,For Sale (Broker),False,
196,339936861,339936861,ForSale,For Sale by Agent,,https://www.zillow.com/homedetails/78-Evergreen-Dr-NW-Edmonton-AB-T5Y-4M2/339936861_zpid/,FOR_SALE,House for sale,C$,"C$90,000",90000,"78 Evergreen Dr NW, Edmonton, AB T5Y 4M2",78 Evergreen Dr NW,Edmonton,AB,T5Y4M2,False,3,1,1130.0,53.62999,-113.349846,False,False,False,ForSale,For Sale (Broker),False,
197,2063320272,2063320272,ForSale,For Sale by Agent,,https://www.zillow.com/homedetails/6124-166th-Ave-NW-Edmonton-AB-T5Y-3N1/2063320272_zpid/,FOR_SALE,House for sale,C$,"C$575,000",575000,"6124 166th Ave NW, Edmonton, AB T5Y 3N1",6124 166th Ave NW,Edmonton,AB,T5Y3N1,False,5,4,2299.0,53.628136,-113.43569,False,False,False,ForSale,For Sale (Broker),False,
198,2062694180,2062694180,ForSale,For Sale by Agent,,https://www.zillow.com/homedetails/12423-53rd-St-NW-Edmonton-AB-T5W-3M3/2062694180_zpid/,FOR_SALE,House for sale,C$,"C$450,000",450000,"12423 53rd St NW, Edmonton, AB T5W 3M3",12423 53rd St NW,Edmonton,AB,T5W3M3,False,4,3,1646.0,53.580128,-113.42267,False,False,False,ForSale,For Sale (Broker),False,
199,348521435,348521435,ForSale,For Sale by Agent,,https://www.zillow.com/homedetails/3224-152nd-Ave-NW-Edmonton-AB-T5Y-0K2/348521435_zpid/,FOR_SALE,Multi-family home for sale,C$,"C$374,800",374800,"3224 152nd Ave NW, Edmonton, AB T5Y 0K2",3224 152nd Ave NW,Edmonton,AB,T5Y0K2,False,4,3,1438.0,53.615612,-113.38853,False,False,False,ForSale,For Sale (Broker),False,
200,350208933,350208933,ForSale,For Sale by Agent,,https://www.zillow.com/homedetails/5816-162nd-Ave-NW-Edmonton-AB-T5Y-2S8/350208933_zpid/,FOR_SALE,House for sale,C$,"C$385,000",385000,"5816 162nd Ave NW, Edmonton, AB T5Y 2S8",5816 162nd Ave NW,Edmonton,AB,T5Y2S8,False,4,2,990.0,53.623234,-113.42935,False,False,False,ForSale,For Sale (Broker),False,
201,349944770,349944770,ForSale,For Sale by Agent,,https://www.zillow.com/homedetails/11735-85th-St-NW-Edmonton-AB-T5B-3E6/349944770_zpid/,FOR_SALE,House for sale,C$,"C$234,900",234900,"11735 85th St NW, Edmonton, AB T5B 3E6",11735 85th St NW,Edmonton,AB,T5B3E6,False,2,1,944.0,53.569275,-113.47163,False,False,False,ForSale,For Sale (Broker),False,
202,348175850,348175850,ForSale,For Sale by Agent,,https://www.zillow.com/homedetails/3820-113th-Ave-NW-Edmonton-AB-T5W-0R1/348175850_zpid/,FOR_SALE,House for sale,C$,"C$444,900",444900,"3820 113th Ave NW, Edmonton, AB T5W 0R1",3820 113th Ave NW,Edmonton,AB,T5W0R1,False,3,3,1577.0,53.566162,-113.40144,False,False,False,ForSale,For Sale (Broker),False,
203,350323437,350323437,ForSale,For Sale by Agent,,https://www.zillow.com/homedetails/11515-89th-St-NW-Edmonton-AB-T5B-3V1/350323437_zpid/,FOR_SALE,House for sale,C$,"C$250,000",250000,"11515 89th St NW, Edmonton, AB T5B 3V1",11515 89th St NW,Edmonton,AB,T5B3V1,False,4,2,716.0,53.566242,-113.47775,False,False,False,ForSale,For Sale (Broker),False,
204,350498577,350498577,ForSale,For Sale by Agent,,https://www.zillow.com/homedetails/12011-91st-St-NW-Edmonton-AB-T5B-4B9/350498577_zpid/,FOR_SALE,Multi-family home for sale,C$,"C$320,000",320000,"12011 91st St NW, Edmonton, AB T5B 4B9",12011 91st St NW,Edmonton,AB,T5B4B9,False,3,3,961.0,53.57397,-113.48093,False,False,False,ForSale,For Sale (Broker),False,
205,347525959,347525959,ForSale,For Sale by Agent,,https://www.zillow.com/homedetails/12707-68th-St-NW-Edmonton-AB-T5C-0E5/347525959_zpid/,FOR_SALE,Townhouse for sale,C$,"C$224,900",224900,"12707 68th St NW, Edmonton, AB T5C 0E5",12707 68th St NW,Edmonton,AB,T5C0E5,False,3,3,1368.0,53.585278,-113.4459,False,False,False,ForSale,For Sale (Broker),False,
206,350094912,350094912,ForSale,For Sale by Agent,,https://www.zillow.com/homedetails/Edmonton-AB-T5E-5V4/350094912_zpid/,FOR_SALE,Townhouse for sale,C$,"C$119,900",119900,"(undisclosed Address), Edmonton, AB T5E 5V4",(undisclosed Address),Edmonton,AB,T5E5V4,True,2,1,502.0,,,False,False,False,ForSale,For Sale (Broker),False,
207,2070586820,2070586820,ForSale,For Sale by Agent,,https://www.zillow.com/homedetails/302-Village-On-The-Grn-NW-Edmonton-AB-T5A-1H2/2070586820_zpid/,FOR_SALE,Townhouse for sale,C$,"C$249,000",249000,"302 Village On The Grn NW, Edmonton, AB T5A 1H2",302 Village On The Grn NW,Edmonton,AB,T5A1H2,False,3,2,1304.0,53.60313,-113.44114,False,False,False,ForSale,For Sale (Broker),False,
208,350221386,350221386,ForSale,For Sale by Agent,,https://www.zillow.com/homedetails/13340-94th-St-NW-Edmonton-AB-T5E-3V8/350221386_zpid/,FOR_SALE,House for sale,C$,"C$363,000",363000,"13340 94th St NW, Edmonton, AB T5E 3V8",13340 94th St NW,Edmonton,AB,T5E3V8,False,3,3,1168.0,53.595287,-113.48672,False,False,False,ForSale,For Sale (Broker),False,
209,2064277462,2064277462,ForSale,For Sale by Agent,,https://www.zillow.com/homedetails/11914-42nd-St-NW-Edmonton-AB-T5W-2N6/2064277462_zpid/,FOR_SALE,House for sale,C$,"C$310,000",310000,"11914 42nd St NW, Edmonton, AB T5W 2N6",11914 42nd St NW,Edmonton,AB,T5W2N6,False,4,2,714.0,53.572308,-113.406746,False,False,False,ForSale,For Sale (Broker),False,
210,350774328,350774328,ForSale,For Sale by Agent,,https://www.zillow.com/homedetails/11907-81st-St-NW-303-Edmonton-AB-T5B-2S7/350774328_zpid/,FOR_SALE,Apartment for sale,C$,"C$68,000",68000,"11907 81st St NW #303, Edmonton, AB T5B 2S7",11907 81st St NW #303,Edmonton,AB,T5B2S7,False,1,1,733.0,53.57228,-113.46516,False,False,False,ForSale,For Sale (Broker),False,
211,350334034,350334034,ForSale,For Sale by Agent,,https://www.zillow.com/homedetails/3009-113th-Ave-NW-Edmonton-AB-T5W-0P3/350334034_zpid/,FOR_SALE,Multi-family home for sale,C$,"C$274,900",274900,"3009 113th Ave NW, Edmonton, AB T5W 0P3",3009 113th Ave NW,Edmonton,AB,T5W0P3,False,5,2,1008.0,53.565815,-113.38912,False,False,False,ForSale,For Sale (Broker),False,
212,350926934,350926934,ForSale,For Sale by Agent,,https://www.zillow.com/homedetails/48-Homestead-Cres-NW-Edmonton-AB-T5A-2Y3/350926934_zpid/,FOR_SALE,Multi-family home for sale,C$,"C$311,900",311900,"48 Homestead Cres NW, Edmonton, AB T5A 2Y3",48 Homestead Cres NW,Edmonton,AB,T5A2Y3,False,3,2,1090.0,53.58592,-113.395706,False,False,False,ForSale,For Sale (Broker),False,
213,350935112,350935112,ForSale,For Sale by Agent,,https://www.zillow.com/homedetails/9302-9304-128th-Ave-NW-Edmonton-AB-T5E-0H2/350935112_zpid/,FOR_SALE,Multi-family home for sale,C$,"C$419,900",419900,"9302/9304 128th Ave NW, Edmonton, AB T5E 0H2",9302/9304 128th Ave NW,Edmonton,AB,T5E0H2,False,3,2,1048.0,53.586246,-113.48478,False,False,False,ForSale,For Sale (Broker),False,
214,350502440,350502440,ForSale,For Sale by Agent,,https://www.zillow.com/homedetails/2511-149th-Ave-NW-Edmonton-AB-T5Y-2G5/350502440_zpid/,FOR_SALE,Multi-family home for sale,C$,"C$288,900",288900,"2511 149th Ave NW, Edmonton, AB T5Y 2G5",2511 149th Ave NW,Edmonton,AB,T5Y2G5,False,3,2,1089.0,53.61173,-113.377975,False,False,False,ForSale,For Sale (Broker),False,
215,2061545723,2061545723,ForSale,For Sale by Agent,,https://www.zillow.com/homedetails/16223-61st-St-NW-Edmonton-AB-T5Y-2R3/2061545723_zpid/,FOR_SALE,House for sale,C$,"C$548,800",548800,"16223 61st St NW, Edmonton, AB T5Y 2R3",16223 61st St NW,Edmonton,AB,T5Y2R3,False,5,4,2781.0,53.62444,-113.43334,False,False,False,ForSale,For Sale (Broker),False,
216,2062589308,2062589308,ForSale,For Sale by Agent,,https://www.zillow.com/homedetails/16770-61st-St-NW-Edmonton-AB-T5Y-3S5/2062589308_zpid/,FOR_SALE,House for sale,C$,"C$705,000",705000,"16770 61st St NW, Edmonton, AB T5Y 3S5",16770 61st St NW,Edmonton,AB,T5Y3S5,False,7,4,2602.0,53.63204,-113.43313,False,False,False,ForSale,For Sale (Broker),False,
217,350939713,350939713,ForSale,For Sale by Agent,,https://www.zillow.com/homedetails/14259-50th-St-NW-109-Edmonton-AB-T5A-5J2/350939713_zpid/,FOR_SALE,Apartment for sale,C$,"C$179,888",179888,"14259 50th St NW #109, Edmonton, AB T5A 5J2",14259 50th St NW #109,Edmonton,AB,T5A5J2,False,2,2,908.0,53.605537,-113.41566,False,False,False,ForSale,For Sale (Broker),False,
218,346306191,346306191,ForSale,For Sale by Agent,,https://www.zillow.com/homedetails/17227-83rd-St-NW-Edmonton-AB-T5Z-3M2/346306191_zpid/,FOR_SALE,House for sale,C$,"C$429,900",429900,"17227 83rd St NW, Edmonton, AB T5Z 3M2",17227 83rd St NW,Edmonton,AB,T5Z3M2,False,2,3,1143.0,53.63411,-113.46807,False,False,False,ForSale,For Sale (Broker),False,
219,346345839,346345839,ForSale,For Sale by Agent,,https://www.zillow.com/homedetails/7716-154th-Ave-NW-Edmonton-AB-T5Z-2Z2/346345839_zpid/,FOR_SALE,House for sale,C$,"C$454,900",454900,"7716 154th Ave NW, Edmonton, AB T5Z 2Z2",7716 154th Ave NW,Edmonton,AB,T5Z2Z2,False,4,3,1085.0,53.61685,-113.46186,False,False,False,ForSale,For Sale (Broker),False,
220,347257110,347257110,ForSale,For Sale by Agent,,https://www.zillow.com/homedetails/14231-26th-St-NW-Edmonton-AB-T5Y-1G7/347257110_zpid/,FOR_SALE,House for sale,C$,"C$345,000",345000,"14231 26th St NW, Edmonton, AB T5Y 1G7",14231 26th St NW,Edmonton,AB,T5Y1G7,False,3,2,1030.0,53.60673,-113.38236,False,False,False,ForSale,For Sale (Broker),False,
221,349746871,349746871,ForSale,For Sale by Agent,,https://www.zillow.com/homedetails/11318-63rd-St-NW-Edmonton-AB-T5W-4E8/349746871_zpid/,FOR_SALE,House for sale,C$,"C$824,900",824900,"11318 63rd St NW, Edmonton, AB T5W 4E8",11318 63rd St NW,Edmonton,AB,T5W4E8,False,5,3,2184.0,53.56746,-113.43665,False,False,False,ForSale,For Sale (Broker),False,
222,350940017,350940017,ForSale,For Sale by Agent,,https://www.zillow.com/homedetails/4503-162nd-Ave-NW-Edmonton-AB-T5Y-0H1/350940017_zpid/,FOR_SALE,House for sale,C$,"C$569,000",569000,"4503 162nd Ave NW, Edmonton, AB T5Y 0H1",4503 162nd Ave NW,Edmonton,AB,T5Y0H1,False,4,3,1673.0,53.620895,-113.40675,False,False,False,ForSale,For Sale (Broker),False,
223,2063401624,2063401624,ForSale,For Sale by Agent,,https://www.zillow.com/homedetails/11133-66th-St-NW-Edmonton-AB-T5B-1H1/2063401624_zpid/,FOR_SALE,House for sale,C$,"C$1,029,000",1029000,"11133 66th St NW, Edmonton, AB T5B 1H1",11133 66th St NW,Edmonton,AB,T5B1H1,False,3,3,2251.0,53.563526,-113.43827,False,False,False,ForSale,For Sale (Broker),False,
224,345184993,345184993,ForSale,For Sale by Agent,,https://www.zillow.com/homedetails/720-166th-Ave-NE-Edmonton-AB-T5Y-0P6/345184993_zpid/,FOR_SALE,House for sale,C$,"C$649,000",649000,"720 166th Ave NE, Edmonton, AB T5Y 0P6",720 166th Ave NE,Edmonton,AB,T5Y0P6,False,4,3,2260.0,53.62814,-113.33343,False,False,False,ForSale,For Sale (Broker),False,
225,349637614,349637614,ForSale,For Sale by Agent,,https://www.zillow.com/homedetails/11926-87th-St-NW-Edmonton-AB-T5B-3N2/349637614_zpid/,FOR_SALE,Multi-family home for sale,C$,"C$399,900",399900,"11926 87th St NW, Edmonton, AB T5B 3N2",11926 87th St NW,Edmonton,AB,T5B3N2,False,4,4,1759.0,53.57304,-113.47478,False,False,False,ForSale,For Sale (Broker),False,
226,350328576,350328576,ForSale,For Sale by Agent,,https://www.zillow.com/homedetails/16734-64th-St-NW-Edmonton-AB-T5Y-3P8/350328576_zpid/,FOR_SALE,Multi-family home for sale,C$,"C$460,000",460000,"16734 64th St NW, Edmonton, AB T5Y 3P8",16734 64th St NW,Edmonton,AB,T5Y3P8,False,3,3,1712.0,53.630463,-113.43904,False,False,False,ForSale,For Sale (Broker),False,
227,350462983,350462983,ForSale,For Sale by Agent,,https://www.zillow.com/homedetails/12206-64th-St-NW-Edmonton-AB-T5W-4J9/350462983_zpid/,FOR_SALE,House for sale,C$,"C$286,000",286000,"12206 64th St NW, Edmonton, AB T5W 4J9",12206 64th St NW,Edmonton,AB,T5W4J9,False,3,2,935.0,53.577,-113.44019,False,False,False,ForSale,For Sale (Broker),False,
228,350911705,350911705,ForSale,For Sale by Agent,,https://www.zillow.com/homedetails/14708-50th-St-NW-208-Edmonton-AB-T5A-5G9/350911705_zpid/,FOR_SALE,Apartment for sale,C$,"C$125,000",125000,"14708 50th St NW #208, Edmonton, AB T5A 5G9",14708 50th St NW #208,Edmonton,AB,T5A5G9,False,1,1,559.0,53.610596,-113.4185,False,False,False,ForSale,For Sale (Broker),False,
229,350195947,350195947,ForSale,For Sale by Agent,,https://www.zillow.com/homedetails/4806-Ada-Blvd-NW-Edmonton-AB-T5W-4N1/350195947_zpid/,FOR_SALE,House for sale,C$,"C$769,500",769500,"4806 Ada Blvd NW, Edmonton, AB T5W 4N1",4806 Ada Blvd NW,Edmonton,AB,T5W4N1,False,4,4,2910.0,53.56609,-113.41565,False,False,False,ForSale,For Sale (Broker),False,
230,350857957,350857957,ForSale,For Sale by Agent,,https://www.zillow.com/homedetails/3433-120th-Ave-NW-Edmonton-AB-T5W-1K1/350857957_zpid/,FOR_SALE,House for sale,C$,"C$428,000",428000,"3433 120th Ave NW, Edmonton, AB T5W 1K1",3433 120th Ave NW,Edmonton,AB,T5W1K1,False,4,2,1051.0,53.57327,-113.39598,False,False,False,ForSale,For Sale (Broker),False,
231,350772322,350772322,ForSale,For Sale by Agent,,https://www.zillow.com/homedetails/6003-122nd-Ave-NW-Edmonton-AB-T5W-4X2/350772322_zpid/,FOR_SALE,Townhouse for sale,C$,"C$230,000",230000,"6003 122nd Ave NW, Edmonton, AB T5W 4X2",6003 122nd Ave NW,Edmonton,AB,T5W4X2,False,3,2,1201.0,53.576588,-113.4341,False,False,False,ForSale,For Sale (Broker),False,
232,2062688945,2062688945,ForSale,For Sale by Agent,,https://www.zillow.com/homedetails/Edmonton-AB-T5W-0Z6/2062688945_zpid/,FOR_SALE,Apartment for sale,C$,"C$105,000",105000,"(undisclosed Address), Edmonton, AB T5W 0Z6",(undisclosed Address),Edmonton,AB,T5W0Z6,True,3,1,974.0,,,False,False,False,ForSale,For Sale (Broker),False,
233,348573176,348573176,ForSale,For Sale by Agent,,https://www.zillow.com/homedetails/11302-96th-St-NW-Edmonton-AB-T5G-1T3/348573176_zpid/,FOR_SALE,House for sale,C$,"C$300,000",300000,"11302 96th St NW, Edmonton, AB T5G 1T3",11302 96th St NW,Edmonton,AB,T5G1T3,False,3,2,827.0,53.562855,-113.49046,False,False,False,ForSale,For Sale (Broker),False,
234,350309757,350309757,ForSale,For Sale by Agent,,https://www.zillow.com/homedetails/13263-47th-St-NW-Edmonton-AB-T5A-3L5/350309757_zpid/,FOR_SALE,Townhouse for sale,C$,"C$204,500",204500,"13263 47th St NW, Edmonton, AB T5A 3L5",13263 47th St NW,Edmonton,AB,T5A3L5,False,3,2,988.0,53.59335,-113.411255,False,False,False,ForSale,For Sale (Broker),False,
235,2063274203,2063274203,ForSale,For Sale by Agent,,https://www.zillow.com/homedetails/Edmonton-AB-T5Y-3R5/2063274203_zpid/,FOR_SALE,House for sale,C$,"C$398,000",398000,"(undisclosed Address), Edmonton, AB T5Y 3R5",(undisclosed Address),Edmonton,AB,T5Y3R5,True,4,3,2547.0,,,False,False,False,ForSale,For Sale (Broker),False,
236,350887535,350887535,ForSale,For Sale by Agent,,https://www.zillow.com/homedetails/4811-177th-Ave-NW-Edmonton-AB-T5Y-3X4/350887535_zpid/,FOR_SALE,House for sale,C$,"C$483,900",483900,"4811 177th Ave NW, Edmonton, AB T5Y 3X4",4811 177th Ave NW,Edmonton,AB,T5Y3X4,False,4,3,1564.0,53.63801,-113.41413,False,False,False,ForSale,For Sale (Broker),False,
237,349601574,349601574,ForSale,For Sale by Agent,,https://www.zillow.com/homedetails/14808-26th-St-NW-302-Edmonton-AB-T5Y-2G4/349601574_zpid/,FOR_SALE,Apartment for sale,C$,"C$129,900",129900,"14808 26th St NW #302, Edmonton, AB T5Y 2G4",14808 26th St NW #302,Edmonton,AB,T5Y2G4,False,3,1,965.0,53.610443,-113.3792,False,False,False,ForSale,For Sale (Broker),False,
238,350135858,350135858,ForSale,For Sale by Agent,,https://www.zillow.com/homedetails/18126-77th-St-NW-413-Edmonton-AB-T5Z-0N7/350135858_zpid/,FOR_SALE,Apartment for sale,C$,"C$249,900",249900,"18126 77th St NW #413, Edmonton, AB T5Z 0N7",18126 77th St NW #413,Edmonton,AB,T5Z0N7,False,3,2,1275.0,53.644917,-113.46242,False,False,False,ForSale,For Sale (Broker),False,
239,349800742,349800742,ForSale,For Sale by Agent,,https://www.zillow.com/homedetails/14223-58th-St-NW-Edmonton-AB-T5A-1N5/349800742_zpid/,FOR_SALE,House for sale,C$,"C$348,888",348888,"14223 58th St NW, Edmonton, AB T5A 1N5",14223 58th St NW,Edmonton,AB,T5A1N5,False,4,2,944.0,53.605106,-113.43071,False,False,False,ForSale,For Sale (Broker),False,
240,2054104703,2054104703,ForSale,For Sale by Agent,,https://www.zillow.com/homedetails/15012-54th-St-NW-Edmonton-AB-T5A-2K7/2054104703_zpid/,FOR_SALE,House for sale,C$,"C$359,800",359800,"15012 54th St NW, Edmonton, AB T5A 2K7",15012 54th St NW,Edmonton,AB,T5A2K7,False,4,3,1249.0,53.613136,-113.42437,False,False,False,ForSale,For Sale (Broker),False,
241,2056018411,2056018411,ForSale,For Sale by Agent,,https://www.zillow.com/homedetails/7449-162nd-Ave-NW-Edmonton-AB-T5Z-3S7/2056018411_zpid/,FOR_SALE,House for sale,C$,"C$665,000",665000,"7449 162nd Ave NW, Edmonton, AB T5Z 3S7",7449 162nd Ave NW,Edmonton,AB,T5Z3S7,False,4,3,1921.0,53.62418,-113.45718,False,False,False,ForSale,For Sale (Broker),False,
242,347102843,347102843,ForSale,For Sale by Agent,,https://www.zillow.com/homedetails/11230-95a-St-NW-Edmonton-AB-T5G-1N8/347102843_zpid/,FOR_SALE,House for sale,C$,"C$210,000",210000,"11230 95a St NW, Edmonton, AB T5G 1N8",11230 95a St NW,Edmonton,AB,T5G1N8,False,4,3,1205.0,53.561985,-113.48886,False,False,False,ForSale,For Sale (Broker),False,
243,2070876391,2070876391,ForSale,For Sale by Agent,,https://www.zillow.com/homedetails/6133-157a-Ave-NW-Edmonton-AB-T5Y-2P6/2070876391_zpid/,FOR_SALE,House for sale,C$,"C$541,000",541000,"6133 157a Ave NW, Edmonton, AB T5Y 2P6",6133 157a Ave NW,Edmonton,AB,T5Y2P6,False,7,4,2333.0,53.619095,-113.43594,False,False,False,ForSale,For Sale (Broker),False,
244,350304492,350304492,ForSale,For Sale by Agent,,https://www.zillow.com/homedetails/11509-84th-St-NW-Edmonton-AB-T5B-3B6/350304492_zpid/,FOR_SALE,House for sale,C$,"C$219,900",219900,"11509 84th St NW, Edmonton, AB T5B 3B6",11509 84th St NW,Edmonton,AB,T5B3B6,False,2,0,1151.0,53.56617,-113.46987,False,False,False,ForSale,For Sale (Broker),False,
245,348029891,348029891,ForSale,For Sale by Agent,,https://www.zillow.com/homedetails/11733-84th-St-NW-Edmonton-AB-T5B-3C2/348029891_zpid/,FOR_SALE,House for sale,C$,"C$198,500",198500,"11733 84th St NW, Edmonton, AB T5B 3C2",11733 84th St NW,Edmonton,AB,T5B3C2,False,2,1,902.0,53.5698,-113.470024,False,False,False,ForSale,For Sale (Broker),False,
246,350929233,350929233,ForSale,For Sale by Agent,,https://www.zillow.com/homedetails/9424-143rd-Ave-NW-Edmonton-AB-T5E-2H3/350929233_zpid/,FOR_SALE,House for sale,C$,"C$459,900",459900,"9424 143rd Ave NW, Edmonton, AB T5E 2H3",9424 143rd Ave NW,Edmonton,AB,T5E2H3,False,3,2,964.0,53.605766,-113.48716,False,False,False,ForSale,For Sale (Broker),False,
247,2057861070,2057861070,ForSale,For Sale by Agent,,https://www.zillow.com/homedetails/11836-79th-St-NW-Edmonton-AB-T5B-2L1/2057861070_zpid/,FOR_SALE,House for sale,C$,"C$249,000",249000,"11836 79th St NW, Edmonton, AB T5B 2L1",11836 79th St NW,Edmonton,AB,T5B2L1,False,3,3,915.0,53.571484,-113.46282,False,False,False,ForSale,For Sale (Broker),False,
248,2066429395,2066429395,ForSale,For Sale by Agent,,https://www.zillow.com/homedetails/6308-132a-Ave-NW-Edmonton-AB-T5A-0K1/2066429395_zpid/,FOR_SALE,House for sale,C$,"C$430,000",430000,"6308 132a Ave NW, Edmonton, AB T5A 0K1",6308 132a Ave NW,Edmonton,AB,T5A0K1,False,6,3,1127.0,53.593334,-113.439125,False,False,False,ForSale,For Sale (Broker),False,
249,2062241704,2062241704,ForSale,For Sale by Agent,,https://www.zillow.com/homedetails/9127-180a-Ave-NW-Edmonton-AB-T5Z-2K5/2062241704_zpid/,FOR_SALE,House for sale,C$,"C$415,000",415000,"9127 180a Ave NW, Edmonton, AB T5Z 2K5",9127 180a Ave NW,Edmonton,AB,T5Z2K5,False,5,3,1267.0,53.64244,-113.48008,False,False,False,ForSale,For Sale (Broker),False,
250,350503519,350503519,ForSale,For Sale by Agent,,https://www.zillow.com/homedetails/3813-109th-Ave-NW-Edmonton-AB-T5W-0G9/350503519_zpid/,FOR_SALE,House for sale,C$,"C$440,000",440000,"3813 109th Ave NW, Edmonton, AB T5W 0G9",3813 109th Ave NW,Edmonton,AB,T5W0G9,False,4,2,1080.0,53.56218,-113.40131,False,False,False,ForSale,For Sale (Broker),False,
251,350578180,350578180,ForSale,For Sale by Agent,,https://www.zillow.com/homedetails/12018-47th-St-NW-Edmonton-AB-T5W-2X3/350578180_zpid/,FOR_SALE,House for sale,C$,"C$295,000",295000,"12018 47th St NW, Edmonton, AB T5W 2X3",12018 47th St NW,Edmonton,AB,T5W2X3,False,4,1,982.0,53.574265,-113.41411,False,False,False,ForSale,For Sale (Broker),False,
252,349960334,349960334,ForSale,For Sale by Agent,,https://www.zillow.com/homedetails/11821-91st-St-NW-Edmonton-AB-T5B-4B4/349960334_zpid/,FOR_SALE,House for sale,C$,"C$229,900",229900,"11821 91st St NW, Edmonton, AB T5B 4B4",11821 91st St NW,Edmonton,AB,T5B4B4,False,3,2,850.0,53.57108,-113.480934,False,False,False,ForSale,For Sale (Broker),False,
253,340046748,340046748,ForSale,For Sale by Agent,,https://www.zillow.com/homedetails/12145-101st-St-NW-Edmonton-AB-T5G-2C2/340046748_zpid/,FOR_SALE,House for sale,C$,"C$399,000",399000,"12145 101st St NW, Edmonton, AB T5G 2C2",12145 101st St NW,Edmonton,AB,T5G2C2,False,3,1,793.0,53.57649,-113.49335,False,False,False,ForSale,For Sale (Broker),False,
254,349033701,349033701,ForSale,For Sale by Agent,,https://www.zillow.com/homedetails/14604-80th-St-NW-Edmonton-AB-T5C-1L9/349033701_zpid/,FOR_SALE,House for sale,C$,"C$415,000",415000,"14604 80th St NW, Edmonton, AB T5C 1L9",14604 80th St NW,Edmonton,AB,T5C1L9,False,4,2,1100.0,53.60854,-113.46519,False,False,False,ForSale,For Sale (Broker),False,
255,349881060,349881060,ForSale,For Sale by Agent,,https://www.zillow.com/homedetails/7830-174a-Ave-NW-Edmonton-AB-T5Z-0R8/349881060_zpid/,FOR_SALE,House for sale,C$,"C$639,000",639000,"7830 174a Ave NW, Edmonton, AB T5Z 0R8",7830 174a Ave NW,Edmonton,AB,T5Z0R8,False,5,4,2034.0,53.63578,-113.46359,False,False,False,ForSale,For Sale (Broker),False,
256,2055318677,2055318677,ForSale,For Sale by Agent,,https://www.zillow.com/homedetails/12240-53rd-St-NW-Edmonton-AB-T5W-3M2/2055318677_zpid/,FOR_SALE,House for sale,C$,"C$479,000",479000,"12240 53rd St NW, Edmonton, AB T5W 3M2",12240 53rd St NW,Edmonton,AB,T5W3M2,False,6,2,1163.0,53.57814,-113.42345,False,False,False,ForSale,For Sale (Broker),False,
257,2064142756,2064142756,ForSale,For Sale by Agent,,https://www.zillow.com/homedetails/12030-50th-St-NW-Edmonton-AB-T5W-3C4/2064142756_zpid/,FOR_SALE,House for sale,C$,"C$270,000",270000,"12030 50th St NW, Edmonton, AB T5W 3C4",12030 50th St NW,Edmonton,AB,T5W3C4,False,3,2,693.0,53.57445,-113.418846,False,False,False,ForSale,For Sale (Broker),False,
258,350848005,350848005,ForSale,For Sale by Agent,,https://www.zillow.com/homedetails/9827-173rd-Ave-NW-Edmonton-AB-T5X-3Y1/350848005_zpid/,FOR_SALE,House for sale,C$,"C$359,900",359900,"9827 173rd Ave NW, Edmonton, AB T5X 3Y1",9827 173rd Ave NW,Edmonton,AB,T5X3Y1,False,3,2,1028.0,53.634743,-113.49493,False,False,False,ForSale,For Sale (Broker),False,
259,347925919,347925919,ForSale,For Sale by Agent,,https://www.zillow.com/homedetails/445-Brintnell-Blvd-NW-47-Edmonton-AB-T5Y-0V5/347925919_zpid/,FOR_SALE,Multi-family home for sale,C$,"C$299,900",299900,"445 Brintnell Blvd NW #47, Edmonton, AB T5Y 0V5",445 Brintnell Blvd NW #47,Edmonton,AB,T5Y0V5,False,2,3,1233.0,53.62747,-113.40507,False,False,False,ForSale,For Sale (Broker),False,
260,349973969,349973969,ForSale,For Sale by Agent,,https://www.zillow.com/homedetails/2508-135th-Ave-NW-Edmonton-AB-T5A-4E3/349973969_zpid/,FOR_SALE,House for sale,C$,"C$389,900",389900,"2508 135th Ave NW, Edmonton, AB T5A 4E3",2508 135th Ave NW,Edmonton,AB,T5A4E3,False,4,3,1237.0,53.596355,-113.38063,False,False,False,ForSale,For Sale (Broker),False,
261,348706147,348706147,ForSale,For Sale by Agent,,https://www.zillow.com/homedetails/751-Abbottsfield-Rd-NW-Edmonton-AB-T5W-4R4/348706147_zpid/,FOR_SALE,Townhouse for sale,C$,"C$184,900",184900,"751 Abbottsfield Rd NW, Edmonton, AB T5W 4R4",751 Abbottsfield Rd NW,Edmonton,AB,T5W4R4,False,3,2,1001.0,53.57552,-113.39214,False,False,False,ForSale,For Sale (Broker),False,
262,2070881269,2070881269,ForSale,For Sale by Agent,,https://www.zillow.com/homedetails/12024-81st-St-NW-Edmonton-AB-T5B-2S8/2070881269_zpid/,FOR_SALE,House for sale,C$,"C$249,900",249900,"12024 81st St NW, Edmonton, AB T5B 2S8",12024 81st St NW,Edmonton,AB,T5B2S8,False,4,1,1150.0,53.57431,-113.46576,False,False,False,ForSale,For Sale (Broker),False,
263,343962460,343962460,ForSale,For Sale by Agent,,https://www.zillow.com/homedetails/5533-144a-Ave-NW-Edmonton-AB-T5A-3R2/343962460_zpid/,FOR_SALE,Townhouse for sale,C$,"C$199,800",199800,"5533 144a Ave NW, Edmonton, AB T5A 3R2",5533 144a Ave NW,Edmonton,AB,T5A3R2,False,2,2,1007.0,53.607235,-113.427185,False,False,False,ForSale,For Sale (Broker),False,
264,345409192,345409192,ForSale,For Sale by Agent,,https://www.zillow.com/homedetails/12936-85th-St-NW-Edmonton-AB-T5E-2Y9/345409192_zpid/,FOR_SALE,House for sale,C$,"C$299,000",299000,"12936 85th St NW, Edmonton, AB T5E 2Y9",12936 85th St NW,Edmonton,AB,T5E2Y9,False,3,2,1044.0,53.58887,-113.47124,False,False,False,ForSale,For Sale (Broker),False,
265,350509437,350509437,ForSale,For Sale by Agent,,https://www.zillow.com/homedetails/14717-34th-St-NW-19-Edmonton-AB-T5Y-2L3/350509437_zpid/,FOR_SALE,Multi-family home for sale,C$,"C$299,000",299000,"14717 34th St NW #19, Edmonton, AB T5Y 2L3",14717 34th St NW #19,Edmonton,AB,T5Y2L3,False,3,3,1433.0,53.609642,-113.39228,False,False,False,ForSale,For Sale (Broker),False,
266,341686223,341686223,ForSale,For Sale by Agent,,https://www.zillow.com/homedetails/12035-69th-St-NW-1-Edmonton-AB-T5B-1S7/341686223_zpid/,FOR_SALE,Multi-family home for sale,C$,"C$319,900",319900,"12035 69th St NW #1, Edmonton, AB T5B 1S7",12035 69th St NW #1,Edmonton,AB,T5B1S7,False,3,3,1168.0,53.57465,-113.4473,False,False,False,ForSale,For Sale (Broker),False,
267,2070274540,2070274540,ForSale,For Sale by Agent,,https://www.zillow.com/homedetails/4316-139th-Ave-NW-206-Edmonton-AB-T5Y-0L1/2070274540_zpid/,FOR_SALE,Apartment for sale,C$,"C$139,900",139900,"4316 139th Ave NW #206, Edmonton, AB T5Y 0L1",4316 139th Ave NW #206,Edmonton,AB,T5Y0L1,False,2,2,1197.0,53.602093,-113.40947,False,False,False,ForSale,For Sale (Broker),False,
268,348266664,348266664,ForSale,For Sale by Agent,,https://www.zillow.com/homedetails/6608-158th-Ave-NW-50-Edmonton-AB-T5Z-3H1/348266664_zpid/,FOR_SALE,Townhouse for sale,C$,"C$299,888",299888,"6608 158th Ave NW #50, Edmonton, AB T5Z 3H1",6608 158th Ave NW #50,Edmonton,AB,T5Z3H1,False,2,4,1358.0,53.61986,-113.44401,False,False,False,ForSale,For Sale (Broker),False,
269,350326485,350326485,ForSale,For Sale by Agent,,https://www.zillow.com/homedetails/3211-142nd-Ave-NW-Edmonton-AB-T5Y-1H9/350326485_zpid/,FOR_SALE,Townhouse for sale,C$,"C$209,900",209900,"3211 142nd Ave NW, Edmonton, AB T5Y 1H9",3211 142nd Ave NW,Edmonton,AB,T5Y1H9,False,3,2,1278.0,53.606068,-113.39055,False,False,False,ForSale,For Sale (Broker),False,
270,350174471,350174471,ForSale,For Sale by Agent,,https://www.zillow.com/homedetails/8914-179a-Ave-NW-Edmonton-AB-T5Z-0A6/350174471_zpid/,FOR_SALE,House for sale,C$,"C$474,900",474900,"8914 179a Ave NW, Edmonton, AB T5Z 0A6",8914 179a Ave NW,Edmonton,AB,T5Z0A6,False,3,3,1977.0,53.640015,-113.47549,False,False,False,ForSale,For Sale (Broker),False,
271,350215704,350215704,ForSale,For Sale by Agent,,https://www.zillow.com/homedetails/154-Roseland-Vlg-NW-Edmonton-AB-T5E-5R6/350215704_zpid/,FOR_SALE,Townhouse for sale,C$,"C$189,900",189900,"154 Roseland Vlg NW, Edmonton, AB T5E 5R6",154 Roseland Vlg NW,Edmonton,AB,T5E5R6,False,3,2,1182.0,53.603638,-113.47442,False,False,False,ForSale,For Sale (Broker),False,
272,2063295299,2063295299,ForSale,For Sale by Agent,,https://www.zillow.com/homedetails/11639-97th-St-NW-Edmonton-AB-T5G-1Y1/2063295299_zpid/,FOR_SALE,House for sale,C$,"C$205,000",205000,"11639 97th St NW, Edmonton, AB T5G 1Y1",11639 97th St NW,Edmonton,AB,T5G1Y1,False,3,2,776.0,53.568546,-113.49143,False,False,False,ForSale,For Sale (Broker),False,
273,350730847,350730847,ForSale,For Sale by Agent,,https://www.zillow.com/homedetails/4947-149th-Ave-NW-Edmonton-AB-T5Y-2W9/350730847_zpid/,FOR_SALE,House for sale,C$,"C$439,000",439000,"4947 149th Ave NW, Edmonton, AB T5Y 2W9",4947 149th Ave NW,Edmonton,AB,T5Y2W9,False,3,3,1376.0,53.611347,-113.4168,False,False,False,ForSale,For Sale (Broker),False,
274,2055707569,2055707569,ForSale,For Sale by Agent,,https://www.zillow.com/homedetails/7106-127th-Ave-NW-Edmonton-AB-T5C-1R5/2055707569_zpid/,FOR_SALE,Townhouse for sale,C$,"C$279,900",279900,"7106 127th Ave NW, Edmonton, AB T5C 1R5",7106 127th Ave NW,Edmonton,AB,T5C1R5,False,3,3,1238.0,53.585197,-113.45106,False,False,False,ForSale,For Sale (Broker),False,
275,349790060,349790060,ForSale,For Sale by Agent,,https://www.zillow.com/homedetails/11309-69th-St-NW-Edmonton-AB-T5B-1R8/349790060_zpid/,FOR_SALE,House for sale,C$,"C$415,000",415000,"11309 69th St NW, Edmonton, AB T5B 1R8",11309 69th St NW,Edmonton,AB,T5B1R8,False,3,2,1337.0,53.56539,-113.44441,False,False,False,ForSale,For Sale (Broker),False,
276,2061137287,2061137287,ForSale,For Sale by Agent,,https://www.zillow.com/homedetails/5343-112th-Ave-NW-Edmonton-AB-T5W-0N6/2061137287_zpid/,FOR_SALE,House for sale,C$,"C$498,000",498000,"5343 112th Ave NW, Edmonton, AB T5W 0N6",5343 112th Ave NW,Edmonton,AB,T5W0N6,False,4,2,889.0,53.567055,-113.425095,False,False,False,ForSale,For Sale (Broker),False,
277,350255302,350255302,ForSale,For Sale by Agent,,https://www.zillow.com/homedetails/227-Hollinger-Close-NW-Edmonton-AB-T5A-5E8/350255302_zpid/,FOR_SALE,House for sale,C$,"C$464,888",464888,"227 Hollinger Close NW, Edmonton, AB T5A 5E8",227 Hollinger Close NW,Edmonton,AB,T5A5E8,False,5,3,1173.0,53.582718,-113.38604,False,False,False,ForSale,For Sale (Broker),False,
278,346735620,346735620,ForSale,For Sale by Agent,,https://www.zillow.com/homedetails/107-Steele-Cres-NW-Edmonton-AB-T5A-1G4/346735620_zpid/,FOR_SALE,House for sale,C$,"C$449,000",449000,"107 Steele Cres NW, Edmonton, AB T5A 1G4",107 Steele Cres NW,Edmonton,AB,T5A1G4,False,5,2,1064.0,53.606228,-113.42199,False,False,False,ForSale,For Sale (Broker),False,
